stop_id,stop_code,stop_name,stop_lat,stop_lon,location_type
BX 06,BX 06,[BX 06] Công Trường Mê Linh,10.77679,106.705856,0
Q1 031,Q1 031,[Q1 031] Bến Bạch Đằng,10.7740842,106.7066694,0
Q1 020,Q1 020,[Q1 020] Cục Hải Quan Thành Phố,10.7711466,106.7058874,0
Q1 193,Q1 193,[Q1 193] Chợ Cũ,10.771177,106.703111,0
Q1 194,Q1 194,[Q1 194] Trường Cao Thắng,10.77110572,106.7018137,0
Q1 102,Q1 102,[Q1 102] Trạm Trung chuyển trên đường Hàm Nghi,10.77107945,106.6994327,0
Q1 124,Q1 124,[Q1 124] Trường Ernst Thalmann,10.7687451,106.6959019,0
Q1 125,Q1 125,[Q1 125] KTX Trần Hưng Đạo,10.767363,106.694695,0
Q1 126,Q1 126,[Q1 126] Rạp Hưng Đạo,10.765832,106.693375,0
Q1 127,Q1 127,[Q1 127] Bệnh viện Răng Hàm Mặt,10.763918,106.691696,0
Q1 128,Q1 128,[Q1 128] Trần Đình Xu,10.762262,106.690247,0
Q1 129,Q1 129,[Q1 129] Tổng Cty Samco,10.759409,106.687798,0
Q1 130,Q1 130,[Q1 130] Chợ Nanci,10.757467,106.686035,0
Q5 083,Q5 083,[Q5 083] Nguyễn Biểu,10.755887,106.68283,0
Q5 084,Q5 084,[Q5 084] Trường Cao đẳng Kinh tế Đối ngoại,10.755623,106.681833,0
Q5 085,Q5 085,[Q5 085] Trần Bình Trọng,10.755064,106.679794,0
Q5 086,Q5 086,[Q5 086] Bệnh viện Chấn thương Chỉnh hình,10.754537,106.677847,0
Q5 087,Q5 087,[Q5 087] Rạp Đồng Tháp,10.753984,106.675825,0
Q5 088,Q5 088,[Q5 088] Rạp Đống Đa,10.753573,106.674237,0
Q5 089,Q5 089,[Q5 089] Đồng Khánh,10.752983,106.67149,0
Q5 099,Q5 099,[Q5 099] Nhà Văn hóa Quận 5,10.753025,106.668588,0
Q5 090,Q5 090,[Q5 090] Ngô Quyền,10.752477,106.666174,0
Q5 091,Q5 091,[Q5 091] Tản Đà,10.752292,106.663706,0
Q5 092,Q5 092,[Q5 092] Triệu Quang Phục,10.752161,106.662017,0
Q5 014,Q5 014,[Q5 014] Bưu điện Quận 5,10.751381,106.658894,0
Q5 015,Q5 015,[Q5 015] Hải Thượng Lãn Ông,10.750948,106.658358,0
Q5 102,Q5 102,[Q5 102] Chợ Kim Biên,10.751128,106.655086,0
BX14,BX14,[BX14] Bến xe buýt Chợ Lớn,10.751253,106.652565,0
Q6 096,Q6 096,[Q6 096] Tháp Mười,10.750326,106.653036,0
Q5 016,Q5 016,[Q5 016] Chợ Kim Biên,10.750732,106.655075,0
Q5 011,Q5 011,[Q5 011] Bưu điện Quận 5,10.751368,106.659203,0
Q5 012,Q5 012,[Q5 012] Rạp Đại Quang,10.7525574,106.658931,0
Q5 055,Q5 055,[Q5 055] Lương Nhữ Học,10.752962,106.660418,0
Q5 056,Q5 056,[Q5 056] Triệu Quang Phục,10.753088,106.662081,0
Q5 057,Q5 057,[Q5 057] Đại học Sư phạm Thể dục thể thao,10.753341,106.663486,0
Q5 058,Q5 058,[Q5 058] Siêu thị Điện máy Chợ Lớn,10.753626,106.664913,0
Q5 059,Q5 059,[Q5 059] Ngô Quyền,10.754,106.666882,0
Q5 060,Q5 060,[Q5 060] Chung cư Nguyễn Trãi,10.754337,106.668572,0
Q5 061,Q5 061,[Q5 061] Bệnh viện Nguyễn Tri Phương,10.754638,106.670149,0
Q5 062,Q5 062,[Q5 062] Trần Phú,10.755212,106.673014,0
Q5 063,Q5 063,[Q5 063] Bệnh viện Nguyễn Trãi,10.755839,106.675084,0
Q5 096,Q5 096,[Q5 096] Bệnh viện Chấn Thương Chỉnh hình,10.754421,106.678271,0
Q5 097,Q5 097,[Q5 097] Trần Bình Trọng,10.754912,106.680041,0
Q5 098,Q5 098,[Q5 098] Nguyễn Biểu,10.756066,106.68437,0
Q1 131,Q1 131,[Q1 131] Chợ Nanci,10.75699,106.685883,0
Q1 132,Q1 132,[Q1 132] Tổng Cty Samco,10.759734,106.688254,0
Q1 133,Q1 133,[Q1 133] Sở PCCC,10.760656,106.689096,0
Q1 134,Q1 134,[Q1 134] Hồ Hảo Hớn,10.762395,106.690636,0
Q1 135,Q1 135,[Q1 135] Bệnh Viện Răng Hàm Mặt,10.763567,106.691612,0
Q1 136,Q1 136,[Q1 136] Rạp Trần Hưng Đạo,10.765213,106.693069,0
Q1 137,Q1 137,[Q1 137] KTX Trần Hưng Đạo,10.767064,106.694824,0
Q1 138,Q1 138,[Q1 138] Nguyễn Kim,10.768327,106.695847,0
Q1 180,Q1 180,[Q1 180] Trạm Trung chuyển trên đường Hàm Nghi,10.77086792,106.7007949,0
Q1 1950,Q1 1950,[Q1 1950] Nam Kỳ Khởi Nghĩa,10.77089749,106.7013778,0
Q1 195,Q1 195,[Q1 195] Chợ Cũ,10.7708606,106.7019008,0
Q1 200,Q1 200,[Q1 200] Giao lộ Hàm Nghi - Tôn Thất Đạm,10.7706303,106.7027924,0
Q1 017,Q1 017,[Q1 017] Hồ Tùng Mậu,10.770722,106.704074,0
Q1 024,Q1 024,[Q1 024] Bến Bạch Đằng,10.773878,106.706648,0
Q1 057,Q1 057,[Q1 057] Công Trường Mê Linh,10.776048,106.705719,0
BX 01,BX 01,[BX 01] Bến xe buýt Sài Gòn,10.767676,106.689362,0
Q1 190,Q1 190,[Q1 190] Tôn Thất Tùng,10.76767,106.690941,0
Q1 191,Q1 191,[Q1 191] Nguyễn Thị Nghĩa,10.768788,106.693699,0
Q1 192,Q1 192,[Q1 192] Trường Emst Thalmann,10.769504,106.695587,0
Q1 179,Q1 179,[Q1 179] Trạm Trung chuyển trên đường Hàm Nghi,10.770896,106.700748,0
Q1 058,Q1 058,[Q1 058] Nhà Hát Thành Phố,10.778031,106.703559,0
Q1 059,Q1 059,[Q1 059] Bệnh viện Nhi Đồng 2,10.77995514,106.7015034,0
Q1 060,Q1 060,[Q1 060] Bưu Điện Thành Phố,10.780645,106.700673,0
Q1 061,Q1 061,[Q1 061] Sở Công Thương,10.784297,106.696526,0
Q1 062,Q1 062,[Q1 062] Công viên Lê Văn Tám,10.787427,106.692599,0
Q1 063,Q1 063,[Q1 063] Nhà thờ Tân Định,10.789215,106.690399,0
Q1 064,Q1 064,[Q1 064] Chợ Tân Định,10.790456,106.688843,0
QPN 012,QPN 012,[QPN 012] Cầu Kiệu,10.79365,106.68481,0
QPN 013,QPN 013,[QPN 013] Chợ Phú Nhuận,10.795062,106.683018,0
QPN 014,QPN 014,[QPN 014] Trường Cao đẳng Kinh tế Đối ngoại,10.79795,106.680905,0
QPN 001,QPN 001,[QPN 001] Ngã tư Phú Nhuận,10.799713,106.680138,0
QPN 002,QPN 002,[QPN 002] Nhà Truyền Thông,10.802232,106.679245,0
QPN 003,QPN 003,[QPN 003 ] Ngã ba Hồ Văn Huê,10.8052209,106.6787617,0
QPN 004,QPN 004,[QPN 004] Coop Mart Nguyễn Kiệm,10.807077,106.678528,0
QPN 005,QPN 005,[QPN 005] Chùa Vạn Hạnh,10.810349,106.67856,0
QGV 125,QGV 125,[QGV 125] Trường Cao đẳng Hải Quan,10.812475,106.678711,0
QGV 040,QGV 040,[QGV 040] Cầu vượt Nguyễn Thái Sơn - Nguyễn Kiệm,10.815244,106.679623,0
QGV 042,QGV 042,[QGV 042] Ngã ba Phạm Ngũ Lão,10.819712,106.683147,0
QGV 187,QGV 187,[QGV 187 ] Cầu vượt ngã sáu Gò Vấp,10.8246018,106.6812143,0
QGV 104,QGV 104,[QGV 104] Cầu vượt ngã sáu Gò Vấp,10.828991,106.678775,0
QGV 106,QGV 106,[QGV 106] Ngã tư Phan Văn Trị,10.832547,106.676699,0
QGV 107,QGV 107,[QGV 107] Cư xá Lam Sơn,10.836114,106.67561,0
QGV 108,QGV 108,[QGV 108] Đài Liệt sĩ,10.839297,106.67583,0
QGV 109,QGV 109,[QGV 109] Ngã tư An Nhơn,10.842268,106.676833,0
QGV 110,QGV 110,[QGV 110] Bến Đò,10.84691,106.678496,0
QGV 111,QGV 111,[QGV 111] Cầu An Lộc,10.849117,106.678802,0
Q12 032,Q12 032,[Q12 032] Nhà hàng Bến Xưa,10.852642,106.679285,0
Q12 033,Q12 033,[Q12 033] Ngã tư Ga,10.857331,106.679907,0
Q12 034,Q12 034,[Q12 034] Đình thần Giao Khẩu,10.865217,106.680433,0
Q12 035,Q12 035,[Q12 035] Cây xăng Tài Lộc,10.86831,106.678319,0
Q12 036,Q12 036,[Q12 036] Vườn kiểng Quang Dũng,10.871371,106.676978,0
Q12 037,Q12 037,[Q12 037] Ga ra Thanh Hậu,10.875454,106.677032,0
Q12 038,Q12 038,[Q12 038] Chợ Thạnh Xuân,10.878493,106.678201,0
Q12 039,Q12 039,[Q12 039] Trường Điện lực 2,10.880785,106.679188,0
Q12 040,Q12 040,[Q12 040] Trường Nguyễn Văn Thệ,10.884562,106.681296,0
Q12 041,Q12 041,[Q12 041] Cây xăng Thanh Bình,10.886253,106.68305,0
Q12 042,Q12 042,[Q12 042] Cầu Ông Dung,10.88876,106.685185,0
Q12 043,Q12 043,[Q12 043] Cầu Phú Long,10.892079,106.687031,0
Q12 044,Q12 044,[Q12 044] Chùa Báo Ấn,10.888945,106.685105,0
Q12 232,Q12 232,[Q12 232] Chợ Đường,10.8977136,106.6891262,0
BX38,BX38,[BX38] Thạnh Xuân,10.8931446,106.67331,0
Q12 235,Q12 235,[Q12 235] Chợ Đường,10.897452,106.689048,0
Q12 045,Q12 045,[Q12 045] Chùa Báo Ấn,10.8948645,106.6884501,0
Q12 046,Q12 046,[Q12 046] Cầu Phú Long,10.892611,106.687229,0
Q12 0460,Q12 0460,[Q12 0460] Cầu Ông Dung,10.888945,106.685105,0
Q12 047,Q12 047,[Q12 047] Cây xăng Thanh Bình,10.8862914,106.6828911,0
Q12 048,Q12 048,[Q12 048] Trường Nguyễn Văn Thệ,10.8841997,106.6809412,0
Q12 049,Q12 049,[Q12 049] Trường Điện Lực 2,10.881117,106.679226,0
Q12 050,Q12 050,[Q12 050] Chợ Thạnh Xuân,10.878983,106.678265,0
Q12 051,Q12 051,[Q12 051] Ga ra Thanh Hậu,10.875074,106.67672,0
Q12 052,Q12 052,[Q12 052] Vườn kiểng Quang Dũng,10.871977,106.676785,0
Q12 053,Q12 053,[Q12 053] Cây xăng Tài Lộc,10.868015,106.678233,0
Q12 054,Q12 054,[Q12 054] Đình thần Giao Khẩu,10.864886,106.680341,0
Q12 055,Q12 055,[Q12 055] Ngã tư Ga,10.857984,106.679649,0
Q12 056,Q12 056,[Q12 056] Nhà hàng Bến Xưa,10.853474,106.679006,0
QGV 112,QGV 112,[QGV 112] Cầu An Lộc,10.848838,106.678539,0
QGV 113,QGV 113,[QGV 113] Bến Đò,10.847015,106.67826,0
QGV 114,QGV 114,[QGV 114] Bưu điện An Nhơn,10.843975,106.677214,0
QGV 115,QGV 115,[QGV 115] Ngã tư An Nhơn,10.841436,106.676345,0
QGV 116,QGV 116,[QGV 116] Đài Liệt sĩ,10.839518,106.675739,0
QGV 117,QGV 117,[QGV 117] Trường Vinhempic,10.836978,106.675444,0
QGV 118,QGV 118,[QGV 118] Cư xá Lam Sơn,10.834939,106.675588,0
QGV 119,QGV 119,[QGV 119] Ngã tư Phan Văn Trị,10.831646,106.676946,0
QGV 120,QGV 120,[QGV 120] Cầu vượt ngã sáu Gò Vấp,10.828538,106.678861,0
QGV 121,QGV 121,[QGV 121] Cầu vượt ngã sáu Gò Vấp,10.824049,106.679027,0
QGV 123,QGV 123,[QGV 123] Bệnh Viện 175,10.819607,106.678711,0
QGV 124,QGV 124,[QGV 124] Chợ Tân Sơn Nhất,10.815386,106.678614,0
QPN 034,QPN 034,[QPN 034] Đầu công viên Gia Định,10.813542,106.677895,0
QPN 035,QPN 035,[QPN 035] Cuối công viên Gia Định,10.809906,106.674741,0
QPN 053,QPN 053,[QPN 053] Đầu Đường Đào Duy Anh,10.807978,106.674057,0
QPN 054,QPN 054,[QPN 054] Cuối Đường Đào Duy Anh,10.805891,106.677177,0
QPN 023,QPN 023,[QPN 023] Ngã ba Đào Duy Anh,10.804858,106.677729,0
QPN 024,QPN 024,[QPN 024] Tháp Nước,10.802434,106.676366,0
QPN 025,QPN 025,[QPN 025] Trung tâm hội nghị tiệc cưới White Palace,10.800074,106.675025,0
QPN 009,QPN 009,[QPN 009] Ngã tư Phú Nhuận,10.799088,106.679354,0
QPN 057,QPN 057,[QPN 057] Trường Cao đẳng Kinh tế Đối ngoại,10.798345,106.680567,0
QPN 058,QPN 058,[QPN 058] Chợ Phú Nhuận,10.795194,106.682605,0
QPN 059,QPN 059,[QPN 059] Cầu Kiệu,10.793081,106.685277,0
Q3 029,Q3 029,[Q3 029] Trần Quang Khải,10.790939,106.68795,0
Q3 030,Q3 030,[Q3 030] Chợ Tân Định,10.788972,106.690445,0
Q3 031,Q3 031,[Q3 031] Công viên Lê Văn Tám,10.787174,106.692653,0
Q3 032,Q3 032,[Q3 032] Trần Cao Vân,10.784023,106.696625,0
Q1 065,Q1 065,[Q1 065] Lê Duẩn,10.78191,106.69902,0
Q1 066,Q1 066,[Q1 066] Bệnh viện Nhi Đồng 2,10.7794443,106.7017909,0
Q1 067,Q1 067,[Q1 067] Nhà Hát Thành Phố,10.7778682,106.703558,0
Q1 068,Q1 068,[Q1 068] Công Trường Mê Linh,10.7759457,106.7055988,0
Q1 184,Q1 184,[Q1 184] Trạm Trung chuyển trên đường Hàm Nghi,10.7712177,106.7000044,0
Q1 187,Q1 187,[Q1 187] Khách sạn New World,10.770964,106.695946,0
Q1 188,Q1 188,[Q1 188] Nguyễn Thị Nghĩa,10.769952,106.693495,0
Q1 189,Q1 189,[Q1 189] Tôn Thất Tùng,10.768761,106.690469,0
Q1 078,Q1 078,"[Q1 078] Đền Thờ Ấn Giáo, Pasteur",10.773595,106.70139,0
Q1 079,Q1 079,[Q1 079] Lê Thánh Tôn,10.775088,106.700768,0
Q1 080,Q1 080,[Q1 080] Lý Tự Trọng,10.777089,106.699657,0
Q1 081,Q1 081,[Q1 081] Lê Duẫn,10.778308,106.698333,0
Q1 082,Q1 082,[Q1 082] Nguyễn Thị Minh Khai,10.779782,106.696659,0
Q3 082,Q3 082,[Q3 082] Đại học Kiến Trúc,10.781804,106.694579,0
Q3 083,Q3 083,[Q3 083] Điện Biên Phủ,10.783419,106.692749,0
Q3 084,Q3 084,[Q3 084] Võ Thị Sáu,10.784924,106.691145,0
Q3 101,Q3 101,[Q3 101] Nhà thiếu nhi thành phố,10.785583,106.689613,0
Q3 048,Q3 048,[Q3 048] Viện Pasteur,10.785577,106.688683,0
Q3 049,Q3 049,[Q3 049] Trần Quốc Toản,10.787047,106.687133,0
H21_02,H21_02,[H21_02] Sacombank Head Office,10.7834388,106.6907312,0
Q3 050,Q3 050,[Q3 050] Lý Chính Thắng,10.789245,106.684746,0
Q3 051,Q3 051,[Q3 051] Chùa Vĩnh Nghiêm,10.790694,106.683125,0
QPN 048,QPN 048,[QPN 048] Ngã tư Trần Huy Liệu,10.793555,106.679236,0
QPN 049,QPN 049,[QPN 049] Trung tâm văn hóa Quận Phú Nhuận,10.795421,106.676093,0
QPN 050,QPN 050,[QPN 050] Cổng xe lửa,10.79677,106.673797,0
QPN 051,QPN 051,[QPN 051] Bệnh viện Quận Phú Nhuận,10.798525,106.670793,0
QPN 052,QPN 052,[QPN 052 ] Cây xăng Quân khu 7,10.799391,106.6695211,0
QTB 099,QTB 099,[QTB 099] Cổng trước SVĐ Quân Khu 7,10.800848,106.66678,0
QTB 107,QTB 107,[QTB 107] Vòng xoay Lăng Cha Cả,10.801365,106.662312,0
QTB 110,QTB 110,[QTB 110] Siêu thị Maximark Cộng Hòa,10.801038,106.659168,0
QTB 111,QTB 111,[QTB 111] Nhà hát Quân Đội,10.801238,106.656754,0
QTB 112,QTB 112,[QTB 112] Ngân hàng Quân đội,10.801412,106.654817,0
QTB 113,QTB 113,[QTB 113] Công ty Lô Hội,10.801728,106.651127,0
QTB 114,QTB 114,[QTB 114] Ngã tư Hoàng Hoa Thám,10.802102,106.646953,0
QTB 115,QTB 115,[QTB 115] Ngã ba Bình Giã,10.802276,106.644512,0
QTB 116,QTB 116,[QTB 116] ETown,10.802571,106.640967,0
QTB 117,QTB 117,[QTB 117] Thượng Uyển,10.806313,106.636192,0
QTB 075,QTB 075,[QTB 075] Mũi tàu Cộng Hòa,10.808078,106.634696,0
QTB 076,QTB 076,[QTB 076] Ngã ba Chế Lan Viên,10.8130281,106.633191,0
QTB 078,QTB 078,[QTB 078] UBND Phường 15,10.817541,106.631691,0
QTB 079,QTB 079,[QTB 079] Khu Công Nghiệp Tân Bình,10.821644,106.630447,0
Q12 128,Q12 128,[Q12 128] Cầu Tham Lương - Siêu thị Thiên Hòa,10.826957,106.625828,0
Q12 129,Q12 129,[Q12 129] Chùa Vĩnh Phước,10.828627,106.624594,0
Q12 132,Q12 132,[Q12 132] Chùa Lạc Quang,10.834781,106.620614,0
Q12 131,Q12 131,[Q12 131] Bitis,10.838222,106.618398,0
Q12 122,Q12 122,[Q12 122] Bến xe An Sương,10.845803,106.613517,0
HHM 058,HHM 058,[HHM 058] Bến xe An Sương,10.845187,106.613522,0
BX41,BX41,[BX41] Bến xe An Sương,10.843738,106.613373,0
Q12 135,Q12 135,[Q12 135] Bitis,10.838891,106.617347,0
Q12 136,Q12 136,[Q12 136] Chùa Lạc Quang,10.834497,106.620212,0
Q12 137,Q12 137,[Q12 137] Chùa Vĩnh Phước,10.83202,106.621794,0
Q12 139,Q12 139,[Q12 139] Cầu Tham Lương - Siêu thị Thiên Hòa,10.82624,106.62586,0
QTP 010,QTP 010,[QTP 010] Trạm Dệt Thành Công,10.822315,106.629825,0
QTP 011,QTP 011,[QTP 011] Trạm KCN Tân Bình,10.819386,106.630615,0
QTP 012,QTP 012,[QTP 012] Ngã 3 Chế Lan Viên,10.817114,106.631472,0
QTP 014,QTP 014,[QTP 014] Trạm Đài Liệt Sỹ,10.808209,106.634262,0
QTB 118,QTB 118,[QTB 118] Thượng Uyển,10.806144,106.636055,0
QTB 119,QTB 119,[QTB 119] Ngã tư Tân Kỳ Tân Quý,10.803541,106.637887,0
QTB 120,QTB 120,[QTB 120] ETown,10.802371,106.640253,0
QTB 121,QTB 121,[QTB 121] Ngã ba Bình Giã,10.802055,106.644292,0
QTB 122,QTB 122,[QTB 122] Công ty Lô Hội,10.801544,106.650413,0
QTB 123,QTB 123,[QTB 123] Pico Plaza,10.801254,106.653637,0
QTB 124,QTB 124,[QTB 124] Ngã ba Út tịch,10.800985,106.656679,0
QTB 125,QTB 125,[QTB 125] Siêu thị Maximart Cộng Hòa,10.800833,106.658819,0
QTB 036,QTB 036,[QTB 036] Công viên Hoàng Văn Thụ,10.800469,106.663578,0
QTB 037,QTB 037,[QTB 037] Bảo Tàng Miền Đông,10.800237,106.666372,0
QPN 043,QPN 043,[QPN 043] Cây xăng Quân khu 7,10.799589,106.66847,0
QPN 044,QPN 044,[QPN 044] Bệnh viện Quận Phú Nhuận,10.798282,106.670744,0
QPN 045,QPN 045,[QPN 045] Cổng Xe lửa,10.796596,106.673609,0
QPN 046,QPN 046,[QPN 046] Trung tâm Văn hóa Quận Phú Nhuận,10.795236,106.675894,0
QPN 047,QPN 047,[QPN 047] Ngã tư Trần Huy Liệu,10.793276,106.679167,0
Q3 052,Q3 052,[Q3 052] Chùa Vĩnh Nghiêm,10.790381,106.683022,0
Q3 053,Q3 053,[Q3 053] Trần Quốc Toản,10.786831,106.686897,0
Q3 054,Q3 054,[Q3 054] Viện Pasteur,10.785351,106.688474,0
Q3 055,Q3 055,[Q3 055] Điện Biên Phủ,10.783116,106.69099,0
Q3 056,Q3 056,[Q3 056] Coop Mart Nguyễn Đình Chiểu,10.78113,106.693152,0
Q3 057,Q3 057,[Q3 057] Trường THPT Lê Quý Đôn,10.779844,106.69452,0
Q1 075,Q1 075,[Q1 075] Tòa án Nhân dân Thành Phố,10.77610575,106.698713,0
Q1 076,Q1 076,[Q1 076] Chùa Ông,10.77396749,106.6997568,0
Q1 077,Q1 077,[Q1 077] Trường CĐKT Cao Thắng,10.771416,106.700851,0
Q1 023,Q1 023,[Q1 023] Trạm Trung chuyển trên đường Hàm Nghi,10.771163,106.699356,0
Q5 079,Q5 079,[Q5 079] Tạ Uyên,10.754606,106.65383,0
Q5 041,Q5 041,[Q5 041] Khách sạn Hoàng Hậu,10.757026,106.655022,0
Q5 042,Q5 042,[Q5 042] Chợ Thiếc,10.757568,106.657616,0
Q5 043,Q5 043,[Q5 043] Bệnh viện Chợ Rẫy,10.758079,106.660128,0
Q5 044,Q5 044,[Q5 044] Lý Thường Kiệt,10.758443,106.662006,0
Q5 045,Q5 045,[Q5 045] Chung cư 155 Nguyễn Chí Thanh,10.759281,106.666056,0
Q5 046,Q5 046,[Q5 046] Trường Kinh tế Công nghệ,10.759649,106.668019,0
Q10 023,Q10 023,[Q10 023] Trường Khiếm thị Nguyễn Đình Chiểu,10.760582,106.669511,0
Q10 024,Q10 024,[Q10 024] Hòa Hảo,10.762933,106.671093,0
Q10 020,Q10 020,[Q10 020] Chợ Lê Hồng Phong,10.764703,106.675444,0
BX13,BX13,[BX13] Lê Hồng Phong,10.761252,106.676592,0
Q1 088,Q1 088,[Q1 088] Phạm Viết Chánh,10.766214,106.682533,0
Q1 089,Q1 089,[Q1 089] Bệnh viện Từ Dũ,10.768709,106.685024,0
Q1 090,Q1 090,[Q1 090] Tôn Thất Tùng,10.77185,106.687943,0
Q1 091,Q1 091,[Q1 091] Sở Y Tế,10.774179,106.690158,0
Q1 092,Q1 092,[Q1 092] Nhà Văn Hóa Lao Động,10.777097,106.692757,0
Q1 093,Q1 093,[Q1 093] Pasteur,10.781031,106.696434,0
Q1 094,Q1 094,[Q1 094] Mạc Đỉnh Chi,10.784191,106.699503,0
Q1 095,Q1 095,[Q1 095] Đinh Tiên Hoàng,10.786146,106.70137,0
Q1 096,Q1 096,[Q1 096] Thảo Cầm Viên,10.789598,106.70459,0
Q1 097,Q1 097,[Q1 097] Cầu Thị Nghè,10.790669,106.705597,0
QBTH 126,QBTH 126,[QBTH 126] Nhà Thờ Thị Nghè,10.793418,106.708156,0
QBTH 125,QBTH 125,[QBTH 125] Trung tâm Dưỡng Lão,10.796533,106.71057,0
QBTH 124,QBTH 124,[QBTH 124] Trường trung học Gia Định,10.798999,106.711203,0
QBTH 123,QBTH 123,[QBTH 123] Ngã Ba Hàng Xanh,10.803262,106.711509,0
QBTH 122,QBTH 122,[QBTH 122] Đài Liệt sĩ,10.808831,106.711965,0
QBTH 138,QBTH 138,[QBTH 138] Cổng ra - Bến xe Miền Đông 1,10.813853,106.712791,0
QTD 198,QTD 198,[QTD 198] Trường TH Bình Triệu,10.829247,106.71434,0
QTD 199,QTD 199,[QTD 199] Trạm xăng dầu,10.832655,106.714149,0
QTD 200,QTD 200,[QTD 200] Cầu Ông Dầu,10.836135,106.714012,0
QTD 201,QTD 201,[QTD 201] Đường số 3,10.838815,106.715317,0
QTD 202,QTD 202,[QTD 202] Đường số 4,10.841072,106.71714,0
QTD 203,QTD 203,[QTD 203] Cân Nhơn Hòa,10.844687,106.718307,0
QTD 204,QTD 204,[QTD 204] Ngã 3 Hiệp Bình,10.848944,106.718704,0
QTD 205,QTD 205,[QTD 205] Ngã 3 Đường Hiệp Bình,10.852921,106.721222,0
QTD 206,QTD 206,[QTD 206] Trạm y tế Hiệp Bình Phước,10.855787,106.722504,0
QTD 207,QTD 207,[QTD 207] UBND P.Hiệp Bình Phước,10.858809,106.723663,0
QTD 208,QTD 208,[QTD 208] Hồ Bơi,10.861172,106.724564,0
QTD 209,QTD 209,[QTD 209] Ngã 4 Bình Phước,10.863845,106.724792,0
QTD 159,QTD 159,[QTD 159] Ngã ba mũi tàu đường Gò Dưa,10.86689,106.727425,0
QTD 160,QTD 160,[QTD 160] Chợ Đầu Mối,10.86831,106.730198,0
QTD 161,QTD 161,[QTD 161] Chợ Tam Bình,10.87086,106.73538,0
QTD 162,QTD 162,[QTD 162] Hồ Bơi,10.871766,106.739666,0
QTD 163,QTD 163,[QTD 163] Chợ Tam Hải,10.872935,106.744081,0
QTD 164,QTD 164,[QTD 164] Cầu vượt Sóng Thần,10.873905,106.747128,0
QTD 165,QTD 165,[QTD 165] Bến xe Lam Hồng,10.875706,106.75562,0
QTD 166,QTD 166,[QTD 166] Giày da Thái Bình,10.875353,106.757466,0
QTD 167,QTD 167,[QTD 167] Linh Xuân,10.874474,106.76091,0
QTD 168,QTD 168,[QTD 168] Cầu vượt Linh Xuân,10.873973,106.762476,0
QTD 106,QTD 106,[QTD 106] Cầu vượt Linh Xuân,10.874434,106.765579,0
QTD 107,QTD 107,[QTD 107] Chợ Linh Xuân,10.877382,106.766628,0
QTD 108,QTD 108,[QTD 108] Thánh thất Cao Đài Linh Xuân,10.88015,106.768066,0
QTD 109,QTD 109,[QTD 109] Đường số 8,10.881807,106.769487,0
QTD 110,QTD 110,[QTD 110] Chùa Từ Quang,10.885452,106.772568,0
QTD 111,QTD 111,[QTD 111] Big C,10.887267,106.774879,0
BXLT Bien Hoa,BXLT Bien Hoa,[BXLT Bien Hoa] Bến xe Biên Hòa,10.954127,106.808953,0
QTD 112,QTD 112,[QTD 112] Big C,10.887349,106.774583,0
QTD 113,QTD 113,[QTD 113] Chùa Từ Quang,10.885494,106.772271,0
QTD 114,QTD 114,[QTD 114] Đường số 8,10.882096,106.769396,0
QTD 115,QTD 115,[QTD 115] Thành thất Cao Đài Linh Xuân,10.880158,106.767744,0
QTD 116,QTD 116,[QTD 116] Chợ Linh Xuân,10.877611,106.766403,0
QTD 117,QTD 117,[QTD 117] Cầu vượt Linh Xuân,10.874279,106.765366,0
QTD 187,QTD 187,[QTD 187] Cầu vượt Linh Xuân,10.874474,106.762095,0
QTD 188,QTD 188,[QTD 188] Giày Thái Bình-Bình Đường,10.875454,106.758689,0
QTD 189,QTD 189,[QTD 189] Giày Thái Bình,10.875738,106.757305,0
QTD 190,QTD 190,[QTD 190] Bến xe Lam Hồng,10.876049,106.755631,0
QTD 191,QTD 191,[QTD 191] Cầu vượt Sóng Thần,10.874115,106.746528,0
QTD 192,QTD 192,[QTD 192] Chợ Tam Hải,10.873373,106.744291,0
QTD 193,QTD 193,[QTD 193] Hồ Bơi,10.872177,106.739913,0
QTD 194,QTD 194,[QTD 194] Chợ Tam Bình,10.870828,106.734474,0
QTD 195,QTD 195,[QTD 195] Chợ đầu mối nông sản Thủ Đức,10.86812,106.729158,0
QTD 214,QTD 214,[QTD 214] Ngã 4 Bình Phước,10.863809,106.72451,0
QTD 215,QTD 215,[QTD 215] Hồ bơi Mèo Mun,10.861345,106.724396,0
QTD 216,QTD 216,[QTD 216] UBND P.Hiệp Bình Phước,10.859791,106.723782,0
QTD 217,QTD 217,[QTD 217] Trạm y tế P. Hiệp Bình Phước,10.856024,106.722343,0
QTD 218,QTD 218,[QTD 218] Ngã 3 Đường Hiệp Bình,10.852579,106.720719,0
QTD 219,QTD 219,[QTD 219] Ngã 3 Hiệp Bình,10.848727,106.718346,0
QTD 220,QTD 220,[QTD 220] Cân Nhơn Hòa,10.844473,106.718086,0
QTD 221,QTD 221,[QTD 221] Đường số 4,10.84109,106.716858,0
QTD 222,QTD 222,[QTD 222] Đường số 3,10.83877,106.714915,0
QTD 223,QTD 223,[QTD 223] Cầu Ông Dầu,10.835822,106.713745,0
QTD 224,QTD 224,[QTD 224] Trạm xăng dầu,10.83294,106.71389,0
QTD 225,QTD 225,[QTD 225] UBND P.Hiệp Bình Chánh,10.830039,106.714027,0
QBTH 038,QBTH 038,[QBTH 038] Cổng vào-Bến xe Miền Đông,10.816661,106.711257,0
QBTH 039,QBTH 039,[QBTH 039] Ngã Tư Nguyễn Xí,10.812625,106.709223,0
QBTH 040,QBTH 040,[QBTH 040] Ngã Tư Chu Văn An,10.809759,106.709143,0
QBTH 041,QBTH 041,[QBTH 041] Cầu Đinh Bộ Lĩnh,10.806908,106.709341,0
QBTH 042,QBTH 042,[QBTH 042] Trạm xăng dầu,10.804421,106.709395,0
QBTH 010,QBTH 010,[QBTH 010] Chợ Hàng Xanh,10.802793,106.710511,0
QBTH 130,QBTH 130,[QBTH 130] Trường trung học Gia Định,10.79981,106.711037,0
QBTH 129,QBTH 129,[QBTH 129] Trường Tiểu học Hồng Hà,10.797328,106.710591,0
QBTH 128,QBTH 128,[QBTH 128] Ngã ba Nguyễn Cửu Vân,10.79511,106.709443,0
QBTH 127,QBTH 127,[QBTH 127] Nhà thờ Thị Nghè,10.793661,106.708054,0
Q1 098,Q1 098,[Q1 098] Thảo Cầm Viên,10.790694,106.705259,0
Q1 099,Q1 099,[Q1 099] Đài truyền hình,10.7872143,106.7020156,0
Q1 100,Q1 100,[Q1 100] nhà thờ Mạc Ti Nho,10.7862376,106.7011673,0
Q1 101,Q1 101,[Q1 101] Phùng Khắc Khoan,10.784048,106.698586,0
Q3 085,Q3 085,[Q3 085] Hồ Con Rùa,10.783314,106.696411,0
Q3 105,Q3 105,[Q3 105] Sân Phan Đình Phùng,10.781172,106.694402,0
Q3 106,Q3 106,[Q3 106] Bảo tàng chứng tích chiến tranh,10.779143,106.69254,0
Q3 107,Q3 107,[Q3 107] Trần Quốc Thảo,10.777889,106.691365,0
Q3 108,Q3 108,[Q3 108] Đại học Mở thành phố HCM,10.776418,106.69004,0
Q3 005,Q3 005,[Q3 005] Nguyễn Thị Minh Khai,10.775102,106.690186,0
Q3 069,Q3 069,[Q3 069] Cách Mạng tháng 8,10.77342,106.689021,0
Q3 070,Q3 070,[Q3 070] Tôn Thất Tùng,10.77079,106.686634,0
Q3 071,Q3 071,[Q3 071] Bệnh viện Từ Dũ,10.768946,106.684883,0
Q3 072,Q3 072,[Q3 072] Trung ương Hội Chữ thập đỏ TP,10.767723,106.683657,0
Q3 073,Q3 073,[Q3 073] Nhà sách Minh Khai,10.766395,106.68238,0
Q10 079,Q10 079,[Q10 079] Công viên Âu Lạc,10.764877,106.680443,0
Q10 080,Q10 080,[Q10 080] Ngã tư Trần Bình Trọng,10.763913,106.678963,0
Q10 081,Q10 081,[Q10 081] Ngã tư Lê Hồng Phong,10.762756,106.677193,0
Q10 082,Q10 082,[Q10 082] Ngã tư Trần Nhân Tông,10.761752,106.675621,0
Q10 047,Q10 047,[Q10 047] Trường CĐ Sư phạm TW thành phố,10.7603133,106.6705721,0
Q10 048,Q10 048,[Q10 048] Nguyễn Tiểu La,10.7597897,106.6679319,0
Q10 049,Q10 049,[Q10 049] Ngã tư Ngô Quyền,10.7592675,106.6651603,0
Q10 050,Q10 050,[Q10 050] Nhà máy Bia Sài Gòn,10.7591415,106.6646281,0
Q11 021,Q11 021,[Q11 021] Bệnh viện Răng Hàm Mặt,10.758364,106.660828,0
Q11 022,Q11 022,[Q11 022] Chợ Thiếc,10.757636,106.657387,0
Q11 023,Q11 023,[Q11 023] Tạ Uyên,10.756951,106.65412,0
Q5 080,Q5 080,[Q5 080] Tạ Uyên,10.755201,106.653696,0
Q5 023,Q5 023,[Q5 023] Bến xe Chợ Lớn,10.753331,106.652334,0
Q5 024,Q5 024,[Q5 024] Thuận Kiều Plaza,10.7541036,106.6568363,0
Q5 025,Q5 025,[Q5 025] Bệnh viện Chợ Rẫy,10.75454113,106.6591599,0
Q5 026,Q5 026,[Q5 026] Đại học Y Dược,10.75536,106.663191,0
Q5 027,Q5 027,[Q5 027] Bệnh viện Đại học Y Dược,10.755671,106.664683,0
Q5 006,Q5 006,[Q5 006] Bệnh viện Nguyễn Tri Phương,10.756714,106.670492,0
Q5 007,Q5 007,[Q5 007] Chợ An Đông,10.757057,106.672182,0
Q5 008,Q5 008,[Q5 008] Huỳnh Mẫn Đạt,10.758374,106.676576,0
Q5 009,Q5 009,[Q5 009] Chợ Bầu Sen,10.759138,106.678453,0
Q5 010,Q5 010,[Q5 010] Đại học Sài Gòn,10.760672,106.682321,0
Q1 141,Q1 141,[Q1 141] ĐH Khoa Học Tự Nhiên,10.762292,106.683052,0
Q1 142,Q1 142,[Q1 142] Trường Lê Hồng Phong,10.764503,106.68216,0
QBTH 059,QBTH 059,[QBTH 059] Đại học Hutech,10.800827,106.714255,0
QBTH 058,QBTH 058,[QBTH 058] Khu Du lịch Văn Thánh,10.799531,106.717404,0
QBTH 057,QBTH 057,[QBTH 057] Cầu Sài Gòn,10.7983603,106.7194075,0
Q2 071,Q2 071,[Q2 071] Cầu Đen,10.799978,106.7342,0
Q2 072,Q2 072,[Q2 072] Thảo Điền,10.800838,106.738899,0
Q2 073,Q2 073,[Q2 073] Metro Quận 2,10.801584,106.742928,0
Q2 074,Q2 074,[Q2 074] Cát Lái,10.802592,106.748089,0
Q9 210,Q9 210,[Q9 210] Xi măng hà tiên - trạm thu phí,10.819206,106.758394,0
Q9 211,Q9 211,[Q9 211] Ngã 4 Tây Hòa (RMK),10.825972,106.760775,0
Q9 212,Q9 212,[Q9 212] Trạm xây dựng,10.829955,106.76312,0
Q9 213,Q9 213,[Q9 213] Khu QLGTDT số 2,10.833249,106.764778,0
TPTD 272,TPTD 272,[TPTĐ 272] Trạm biến áp Bình Thái,10.83703132,106.7663282,0
QTD 054,QTD 054,[QTD 054] Tu viện Quảng Đức,10.839,106.766617,0
QTD 055,QTD 055,[QTD 055] Công ty Sanofi Aventis,10.841652,106.764175,0
QTD 056,QTD 056,[QTD 056] Công ty may Sài Gòn,10.843897,106.762466,0
QTD 057,QTD 057,[QTD 057] Trường mầm non Vành Khuyên,10.847888,106.760056,0
QTD 058,QTD 058,[QTD 058] Làng Thiếu Niên Thủ Đức,10.850015,106.758781,0
QTD 070,QTD 070,[QTD 070] Ngã ba Chương Dương,10.850419,106.760931,0
QTD 071,QTD 071,[QTD 071] Cao đẳng xây dựng 2,10.85065,106.764439,0
QTD 072,QTD 072,[QTD 072] Siêu thị Nguyễn Kim,10.849686,106.769112,0
QTD 073,QTD 073,[QTD 073] Trường ĐHSP Kỹ Thuật,10.849597,106.771917,0
Q9 218,Q9 218,[Q9 218] Công an Quận 9,10.849966,106.775066,0
Q9 281,Q9 281,[Q9 281] Trạm Hutech - Khu Công nghệ cao,10.8557382,106.7856068,0
Q9 220,Q9 220,[Q9 220] Khu Công nghệ cao quận 9,10.858511,106.788869,0
QTD 180,QTD 180,[QTD 180] Đại học Nông Lâm,10.866961,106.791101,0
BX73,BX73,[BX73] Đại học Nông Lâm,10.86916666,106.7878922,0
QTD 174,QTD 174,[QTD 174] ĐH Nông Lâm,10.866912,106.790283,0
QTD 074,QTD 074,[QTD 074] Khu Công nghệ cao Q9,10.86026978,106.7911462,0
QTD 075,QTD 075,[QTD 075] Xa Lộ Hà Nội,10.85879454,106.7886472,0
QTD 076,QTD 076,[QTD 076] Công ty Cocacola,10.856483,106.784964,0
QTD 065,QTD 065,[QTD 065] Trường Đại học Sư phạm Kỹ thuật,10.849871,106.772105,0
QTD 066,QTD 066,[QTD 066] Siêu thị Nguyễn Kim,10.849805,106.768837,0
QTD 067,QTD 067,[QTD 067] Nhà thiếu nhi Thủ Đức,10.850556,106.766794,0
QTD 068,QTD 068,[QTD 068] Cao đẳng xây dựng 2,10.850808,106.764101,0
QTD 069,QTD 069,[QTD 069] Ngã ba Chương Dương,10.850645,106.760201,0
QTD 059,QTD 059,[QTD 059] Làng Thiếu Niên Thủ Đức,10.849723,106.758698,0
QTD 060,QTD 060,[QTD 060] Trường THPT Quận Thủ Đức,10.848207,106.759613,0
QTD 061,QTD 061,[QTD 061] Công ty may Sài Gòn,10.844107,106.762133,0
QTD 062,QTD 062,[QTD 062] Công ty Sanofi Aventis,10.84132,106.764354,0
QTD 063,QTD 063,[QTD 063] Tu viện Quảng Đức,10.839607,106.766136,0
TPTD 271,TPTD 271,[TPTĐ 271] Trạm biến áp Bình Thái,10.8378312,106.7665861,0
QTD 080,QTD 080,[QTD 080] Ngã 4 Bình Thái,10.834945,106.765244,0
QTD 081,QTD 081,[QTD 081] Công ty truyền tải điện 4,10.831214,106.763195,0
QTD 082,QTD 082,[QTD 082] Ngã 4 Tây Hòa (RMK),10.825366,106.759998,0
QTD 083,QTD 083,[QTD 083] Xi măng Hà Tiên,10.820576,106.758142,0
Q2 075,Q2 075,[Q2 075] Cát Lái,10.802925,106.747948,0
Q2 076,Q2 076,[Q2 076] Metro Quận 2,10.802134,106.7434,0
Q2 077,Q2 077,[Q2 077] Thảo Điền,10.8013318,106.7389349,0
Q2 078,Q2 078,[Q2 078] Cầu Đen,10.8005011,106.7343882,0
QBTH 056,QBTH 056,[QBTH 056] Cầu Sài Gòn,10.7989308,106.719697,0
QBTH 055,QBTH 055,[QBTH 055] Khu Du lịch Văn Thánh,10.800274,106.717227,0
QBTH 054,QBTH 054,[QBTH 054] Đại học Hutech,10.801228,106.714856,0
QBTH 053,QBTH 053,[QBTH 053] Cây xăng dầu,10.801697,106.712834,0
Q5 073,Q5 073,[Q5 073] Trường THPT Lê Hồng Phong,10.764456,106.681946,0
Q5 074,Q5 074,[Q5 074] Đại học Khoa học Tự nhiên,10.763354,106.682388,0
Q5 001,Q5 001,[Q5 001] Đại học Sư Phạm,10.76103,106.68267,0
Q5 002,Q5 002,[Q5 002] Chợ Bầu Sen,10.759407,106.678764,0
Q5 003,Q5 003,[Q5 003] Huỳnh Mẫn Đạt,10.757984,106.675272,0
Q5 004,Q5 004,[Q5 004] Chợ An Đông,10.757536,106.673534,0
Q5 005,Q5 005,[Q5 005] Bệnh viện Nguyễn Tri Phương,10.756967,106.670653,0
Q5 068,Q5 068,[Q5 068] Công viên Văn Lang,10.757151,106.669613,0
Q5 031,Q5 031,[Q5 031] Công viên Văn Lang,10.757257,106.668566,0
Q5 017,Q5 017,[Q5 017] Bệnh viện Phạm Ngọc Thạch,10.755897,106.664511,0
Q5 018,Q5 018,[Q5 018] Hùng Vương Plaza,10.755196,106.661072,0
Q5 019,Q5 019,[Q5 019] Bệnh viện Chợ Rẫy,10.754875,106.659501,0
Q5 020,Q5 020,[Q5 020] Thuận Kiều Plaza,10.75458,106.657934,0
Q5 021,Q5 021,[Q5 021] Dương Tử Giang,10.754158,106.65552,0
Q6 095,Q6 095,[Q6 095] Chu Văn An,10.750232,106.652554,0
Q5 069,Q5 069,[Q5 069] Trường Trần Khai Nguyên,10.758706,106.66928,0
Q10 071,Q10 071,[Q10 071] Đại học Kinh tế,10.761386,106.668564,0
Q10 072,Q10 072,[Q10 072] Trường Hoàng Văn Thụ,10.763073,106.668213,0
Q10 073,Q10 073,[Q10 073] Chợ Nhật Tảo,10.765397,106.667702,0
Q10 074,Q10 074,[Q10 074] Học viện Quân y,10.767052,106.667313,0
Q10 011,Q10 011,[Q10 011] Bệnh viện Nhi Đồng 1,10.769518,106.670609,0
Q10 012,Q10 012,[Q10 012] Nhà thờ Vinh Sơn,10.770269,106.672166,0
Q10 013,Q10 013,[Q10 013] Nhà hát Hòa Bình,10.771855,106.674805,0
Q10 014,Q10 014,[Q10 014] Học viện Hành chính Quốc gia,10.77323,106.677015,0
Q10 015,Q10 015,[Q10 015] Bệnh viện Bình Dân,10.774421,106.67885,0
Q10 016,Q10 016,[Q10 016] Siêu thị Maximark,10.776977,106.68099,0
Q3 123,Q3 123,[Q3 123] Vòng xoay Dân chủ,10.7785985,106.6812304,0
Q3 118,Q3 118,[Q3 118] Ga Hòa Hưng,10.7827122,106.676648,0
Q3 124,Q3 124,[Q3 124] Nguyễn Thông,10.78143386,106.6793822,0
Q3 033,Q3 033,[Q3 033] Nhà thờ Dòng chúa Cứu thế,10.780805,106.681305,0
Q3 034,Q3 034,[Q3 034] Trần Quốc Thảo,10.784504,106.683022,0
Q3 042,Q3 042,[Q3 042] Chợ Nguyễn Văn Trỗi,10.787041,106.679535,0
Q3 093,Q3 093,[Q3 093] Trần Quang Diệu,10.788375,106.678319,0
QPN 030,QPN 030,[QPN 030] Bệnh viện An Sinh,10.791023,106.678123,0
QPN 031,QPN 031,[QPN 031] Ngã Tư Nguyễn Văn Trỗi,10.793028,106.677992,0
QTB 101,QTB 101,[QTB 101] Rạp Tân Sơn Nhất,10.80244,106.665924,0
QTB 102,QTB 102,[QTB 102] Bãi xe buýt Phổ Quang,10.805417,106.6667,0
QTB 103,QTB 103,[QTB 103] Cây xăng Quân đội,10.807221,106.668495,0
QPN 033,QPN 033,[QPN 033] Trường Đại học Kỹ thuật Công nghệ,10.808204,106.672236,0
QPN 036,QPN 036,[QPN 036] Cuối công viên Gia Định,10.809727,106.674929,0
QPN 037,QPN 037,[QPN 037] Ngã ba Đặng Văn Sâm,10.811382,106.676399,0
QPN 038,QPN 038,[QPN 038] Đầu công viên Gia Định,10.8135,106.678222,0
QGV 043,QGV 043,[QGV 043] Ngã ba Phạm Ngũ Lão,10.820834,106.68407,0
QGV 044,QGV 044,[QGV 044] Trường Đại học Công nghiệp,10.822789,106.685636,0
QGV 045,QGV 045,[QGV 045] UBND Phường 5,10.825134,106.687975,0
BX43,BX43,[BX43] Bãi hậu cần số 1,10.823611,106.691895,0
QGV 001,QGV 001,[QGV 001] Bãi hậu cần số 1,10.823964,106.69195,0
QGV 048,QGV 048,[QGV 048] UBND Phường 5,10.825513,106.688259,0
QGV 049,QGV 049,[QGV 049] Trường Đại học Công nghiệp,10.822779,106.685277,0
QGV 050,QGV 050,[QGV 050 ] Ngã ba Phạm Ngũ Lão,10.8213718,106.6841454,0
QPN 026,QPN 026,[QPN 026] Nhà thờ Phú Nhuận,10.798646,106.677525,0
QPN 027,QPN 027,[QPN 027] Công an Quận Phú Nhuận,10.795658,106.677702,0
QPN 028,QPN 028,[QPN 028] Ngã tư Nguyễn Văn Trỗi,10.792667,106.677887,0
QPN 029,QPN 029,[QPN 029] Bệnh viện An Sinh,10.791171,106.677986,0
Q3 094,Q3 094,[Q3 094] Lê Văn Sỹ,10.788544,106.678123,0
Q3 047,Q3 047,[Q3 047] Chợ Nguyễn Văn Trỗi,10.786853,106.679322,0
Q3 035,Q3 035,[Q3 035] Trần Quốc Thảo,10.78456,106.682868,0
Q3 036,Q3 036,[Q3 036] Nhà thờ Dòng chúa Cứu thế,10.780704,106.681061,0
Q3 075,Q3 075,[Q3 075] Nguyễn Thông,10.781328,106.679573,0
Q3 066,Q3 066,[Q3 066] Ga Hòa Hưng,10.781528,106.678383,0
Q3 067,Q3 067,[Q3 067] Rạch Bùng Binh,10.780645,106.678888,0
Q3 068,Q3 068,[Q3 068] Vòng xoay Dân Chủ,10.778592,106.681038,0
Q10 001,Q10 001,[Q10 001] Siêu thị Maximark,10.777162,106.680771,0
Q10 002,Q10 002,[Q10 002] Bệnh viện Bình Dân,10.774785,106.678947,0
Q10 003,Q10 003,[Q10 003] Học viện Hành chính Quốc gia,10.773457,106.676951,0
Q10 004,Q10 004,[Q10 004] Học viện Hành chính Quốc gia,10.772661,106.675701,0
Q10 005,Q10 005,[Q10 005] Nhà hát Hòa Bình,10.771712,106.674202,0
Q10 006,Q10 006,[Q10 006] Nhà thờ Vinh Sơn,10.770521,106.67215,0
Q10 007,Q10 007,[Q10 007] Bệnh viện Nhi Đồng 1,10.769578,106.670364,0
Q10 075,Q10 075,[Q10 075] Học viện Quân y,10.766769,106.667259,0
Q10 076,Q10 076,[Q10 076] Chợ Nhật Tảo,10.764991,106.667664,0
Q10 077,Q10 077,[Q10 077] Trường Hoàng Văn Thụ,10.763371,106.668015,0
Q10 078,Q10 078,[Q10 078] Đại học kinh tế,10.761049,106.668488,0
Q5 036,Q5 036,[Q5 036] Ngô Gia Tự,10.758801,106.668062,0
Q5 035,Q5 035,[Q5 035] Trung tâm giáo dục thường xuyên,10.757331,106.667016,0
Q5 013,Q5 013,[Q5 013] Rạp Đại Quang,10.752445,106.658792,0
BX 20,BX 20,[BX 20] Bến xe buýt Quận 8,10.73337123,106.6563308,0
Q8 073,Q8 073,[Q8 073] Bùi Minh Trực,10.73646,106.656346,0
Q8 074,Q8 074,[Q8 074] Cầu Nhị Thiên Đường,10.738769,106.656427,0
Q8 111,Q8 111,[Q8 111] Tùng Thiện Vương,10.744513,106.656802,0
Q8 112,Q8 112,[Q8 112] Chợ Xóm Củi,10.746073,106.659763,0
Q5 033,Q5 033,[Q5 033] Bệnh viện Hùng Vương,10.7568045,106.6620507,0
Q10 051,Q10 051,[Q10 051] CoopMart Lý Thường Kiệt,10.7595809,106.6612933,0
Q10 052,Q10 052,[Q10 052] Điện lực Phú Thọ,10.76523,106.659763,0
Q10 053,Q10 053,[Q10 053] Nhà thi đấu Phú Thọ,10.767367,106.659065,0
Q10 054,Q10 054,[Q10 054] Bệnh viện Trưng Vương,10.769652,106.658524,0
Q10 055,Q10 055,[Q10 055] Đại học Bách Khoa,10.772603,106.657698,0
Q10 056,Q10 056,[Q10 056] Bưu Điện Phú Thọ,10.776487,106.656625,0
QTB 023,QTB 023,[QTB 023] Ngã ba Thành Thái,10.778974,106.655896,0
QTB 024,QTB 024,[QTB 024] Siêu thị Nguyễn Kim - CMC Tân Bình,10.781072,106.65529,0
QTB 025,QTB 025,[QTB 025] Cây xăng Đôi,10.784002,106.654431,0
QTB 026,QTB 026,[QTB 026] Chợ Tân Bình,10.786222,106.653786,0
QTB 027,QTB 027,[QTB 027] Bệnh viện chỉnh hình và Phục hồi chức năng,10.788689,106.653076,0
QTB 028,QTB 028,[QTB 028] Bệnh viện Thống Nhất,10.792101,106.653074,0
QTB 034,QTB 034,[QTB 034] Bệnh viện Quận Tân Bình,10.79472,106.655198,0
QTB 035,QTB 035,[QTB 035] Nhà hàng Đông Phương,10.798556,106.659216,0
QPN 006,QPN 006,[QPN 006] Siêu Thị Big C,10.799942,106.669462,0
QPN 007,QPN 007,[QPN 007] Khách Sạn Tân Sơn Nhất,10.799805,106.670873,0
QPN 008,QPN 008,[QPN 008] Công an Phú Nhuận,10.799542,106.673818,0
QPN 015,QPN 015,[QPN 015 ] Ngã tư Phan Xích Long,10.8003607,106.6817338,0
QPN 016,QPN 016,[QPN 016] Ngã Tư Thích Quảng Đức,10.802287,106.683689,0
QPN 017,QPN 017,[QPN 017] Trường Đại học Văn Hiến,10.803847,106.686108,0
QPN 018,QPN 018,[QPN 018] Bệnh Viện Phước An,10.803615,106.687916,0
QPN 060,QPN 060,[QPN 060] Công viên Văn hóa Phú Nhuận,10.80333164,106.6903826,0
QBTHT056,QBTHT056,[QBTHT056] UBND Quận Bình Thạnh,10.80260303,106.6954014,0
QBTH 114,QBTH 114,[QBTH 114] Lăng Ông Bà Chiểu,10.802408,106.697159,0
QBTH 006,QBTH 006,[QBTH 006] Chợ Bà Chiểu,10.802893,106.699471,0
QBTH 007,QBTH 007,[QBTH 007] Tòa Án nhân dân Quận Bình Thạnh,10.803615,106.701204,0
QBTH 008,QBTH 008,[QBTH 008] Chùa Bồ Đề,10.803293,106.703988,0
QBTH 009,QBTH 009,[QBTH 009] Nhà thờ Hàng Xanh,10.803077,106.706713,0
QBTH 136,QBTH 136,[QBTH 136] Cổng ra - Bến xe Miền Đông 3,10.811666,106.712532,0
QTD 118,QTD 118,[QTD 118] Ngã tư Bình Triệu,10.82603,106.715655,0
QTD 119,QTD 119,[QTD 119] Đường số 20,10.827878,106.721032,0
QTD 120,QTD 120,[QTD 120] Chùa Ưu Đàm,10.830679,106.72476,0
QTD 121,QTD 121,[QTD 121] Cá sấu Hoa cà,10.833606,106.728331,0
QTD 122,QTD 122,[QTD 122] THCS Ngô Chí Quốc,10.83555,106.730713,0
QTD 123,QTD 123,[QTD 123] Chùa An Lạc,10.837484,106.733288,0
QTD 124,QTD 124,[QTD 124] Cầu Gò Dưa,10.839776,106.740509,0
QTD 126,QTD 126,[QTD 126] Trường Cao đẳng Vinatex,10.840767,106.744022,0
QTD 127,QTD 127,[QTD 127] Trạm xăng 27-7,10.84129,106.746346,0
QTD 128,QTD 128,[QTD 128] Công an phường Linh Đông,10.844781,106.74966,0
QTD 129,QTD 129,[QTD 129] Trạm Cầu Ngang,10.847416,106.75209,0
QTD 130,QTD 130,[QTD 130] Chợ Thủ Đức,10.850158,106.754372,0
Q9 219,Q9 219,[Q9 219] Chợ chiều,10.853511,106.780474,0
Q9 221,Q9 221,[Q9 221] Cầu Vượt Trạm 2,10.863595,106.797538,0
Q9 223,Q9 223,[Q9 223] Suối Tiên,10.866498,106.802377,0
Q9 225,Q9 225,[Q9 225] Nghĩa trang liệt sĩ TP.HCM,10.873694,106.809286,0
QTD 251,QTD 251,[QTD 251] Vành đại ĐHQG TPHCM,10.8746596,106.8062394,0
QTD 253,QTD 253,[QTD 253] KTX Khu A ĐH Quốc Gia TPHCM,10.87578077,106.8050991,0
QTD 254,QTD 254,[QTD 254] Đại học Quốc tế,10.87667263,106.8024909,0
QTD 249,QTD 249,[QTD 249] Nhà văn hoá sinh viên,10.8745661,106.799899,0
QTD 250,QTD 250,[QTD 250] Đại học Khoa học xã hội và Nhân văn,10.8734223,106.802275,0
QTD 272,QTD 272,[QTD 272] ĐH Khoa học tự nhiên,10.87462881,106.8062569,0
BX92,BX92,[BX92] Bến xe buýt ĐH Quốc gia TPHCM (mới),10.8750491,106.8071312,0
QTD 271,QTD 271,[QTD 271] Bến xe buýt Khu A ĐHQG,10.8736134,106.8029052,0
QTD 248,QTD 248,[QTD 248] Nhà Văn hoá sinh viên,10.87486291,106.7999937,0
QTD 255,QTD 255,[QTD 255] Đại học Quốc tế,10.87643143,106.8024803,0
QTD 252,QTD 252,[QTD 252] KTX Khu A ĐH Quốc Gia TPHCM,10.87580335,106.8050944,0
QTD 175,QTD 175,[QTD 175] Đại học An Ninh Nhân Dân,10.87148909,106.8066367,0
QTD 176,QTD 176,[QTD 176] Trường giáo dục Quốc phòng,10.868216,106.804367,0
QTD 177,QTD 177,[QTD 177] Khu DL Suối Tiên,10.86605,106.801116,0
QTD 197,QTD 197,[QTD 197] Câu vượt Trạm 2,10.8639,106.797318,0
QTD 145,QTD 145,[QTD 145] Chợ Thủ Đức,10.850327,106.754005,0
QTD 146,QTD 146,[QTD 146] Trạm Cầu ngang,10.847199,106.751587,0
QTD 147,QTD 147,[QTD 147] Công an Phường Linh Đông,10.845116,106.749763,0
QTD 148,QTD 148,[QTD 148] Trạm xăng 27-7,10.841721,106.74659,0
QTD 149,QTD 149,[QTD 149] Trường Cao đẳng Vinatex,10.840851,106.744548,0
QTD 153,QTD 153,[QTD 153] Nút giao Linh Đông -PVĐ,10.84077,106.742682,0
QTD 154,QTD 154,[QTD 154] Chùa An Lạc,10.837284,106.732328,0
QTD 155,QTD 155,[QTD 155] Cá sấu Hoa Cà,10.833634,106.727916,0
QTD 156,QTD 156,[QTD 156] Đường số 20,10.828232,106.720988,0
QTD 157,QTD 157,[QTD 157] Ngã tư Bình Triệu,10.826557,106.715848,0
QBTH 002,QBTH 002,[QBTH 002] Nhà thờ Hàng Xanh,10.803177,106.708032,0
QBTH 003,QBTH 003,[QBTH 003] Chùa Bồ Đề,10.803483,106.704015,0
QBTH 004,QBTH 004,[QBTH 004] Tòa Án nhân dân Quận Bình Thạnh,10.803873,106.701187,0
QBTH 005,QBTH 005,[QBTH 005] Chợ Bà Chiểu,10.803125,106.699374,0
QBTH 115,QBTH 115,[QBTH 115] UBND Quận Bình Thạnh,10.802819,106.695786,0
QBTH 116,QBTH 116,[QBTH 116] Bệnh Viện Gia Định,10.803119,106.693543,0
QBTH 117,QBTH 117,[QBTH 117] PCCC quận Bình Thạnh,10.803362,106.691741,0
QPN 019,QPN 019,[QPN 019] Bệnh viện Phước An,10.803878,106.687637,0
QPN 020,QPN 020,[QPN 020] Đại học Văn Hiến,10.804078,106.686119,0
QPN 021,QPN 021,[QPN 021] Ngã Tư Thích Quảng Đức,10.802529,106.683608,0
QPN 022,QPN 022,[QPN 022] Ngã tư Phan Xích Long,10.80088,106.681892,0
QPN 010,QPN 010,[QPN 010] Ngã tư Phú Nhuận,10.799325,106.679236,0
QPN 061,QPN 061,[QPN 061] Công An Phú Nhuận,10.7995117,106.6737011,0
QPN 011,QPN 011,[QPN 011] Siêu thị Big C,10.800153,106.669559,0
QTB 038,QTB 038,[QTB 038] Vòng xoay Lăng Cha Cả,10.7999,106.660321,0
QTB 039,QTB 039,[QTB 039] Công an Quận Tân Bình,10.79717,106.657425,0
QTB 064,QTB 064,[QTB 064] Hội Chợ Triển lãm Tân Bình,10.796122,106.655145,0
QTB 065,QTB 065,[QTB 065] Trường Phạm Ngũ Lão,10.796032,106.654066,0
QTB 066,QTB 066,[QTB 066] Cây xăng Đôi,10.794256,106.652184,0
QTB 029,QTB 029,[QTB 029] Bệnh viện Thống Nhất,10.792122,106.6528,0
QTB 030,QTB 030,[QTB 030] Bệnh viện chỉnh hình và phục hồi chức năng,10.788718,106.652806,0
QTB 031,QTB 031,[QTB 031] Chợ Tân Bình,10.786131,106.653584,0
QTB 032,QTB 032,[QTB 032] Siêu thị Nguyễn Kim - CMC Tân Bình,10.782695,106.654571,0
QTB 033,QTB 033,[QTB 033] Trường Nguyễn Thái Bình,10.779233,106.655609,0
Q11 016,Q11 016,[Q11 016] Bưu Điện Phú Thọ,10.775314,106.656693,0
Q11 017,Q11 017,[Q11 017] Đại Học Bách Khoa(cổng trước),10.771331,106.657829,0
Q11 018,Q11 018,[Q11 018] Bệnh viện Trưng Vương,10.769639,106.658295,0
Q11 019,Q11 019,[Q11 019] Điện Lực Phú Thọ (Nhà hàng phong lan),10.765792,106.659363,0
Q11 020,Q11 020,[Q11 020] Chợ Nhật Tảo,10.761718,106.660484,0
Q5 034,Q5 034,[Q5 034] Bệnh viện Hùng Vương,10.755702,106.66221,0
Q8 110,Q8 110,[Q8 110] Tùng Thiện Vương,10.74483,106.656926,0
Q8 069,Q8 069,[Q8 069] Chùa Pháp Quang,10.738642,106.656142,0
Q8 070,Q8 070,[Q8 070] Bùi Minh Trực,10.73646,106.656126,0
Q6 071,Q6 071,[Q6 071] Trường Võ Văn Tần,10.752271,106.64975,0
Q11 094,Q11 094,[Q11 094] Cây Mai,10.753689,106.64926,0
Q11 095,Q11 095,[Q11 095] Lò Siêu,10.753952,106.646787,0
Q11 096,Q11 096,[Q11 096] Cây Gõ,10.754232,106.644368,0
Q11 097,Q11 097,[Q11 097] Chùa Huê Lâm,10.754558,106.641229,0
Q11 098,Q11 098,[Q11 098] Tân Hóa,10.75477,106.638428,0
Q6 038,Q6 038,[Q6 038] Cầu Ông Buông,10.754732,106.635574,0
Q6 044,Q6 044,[Q6 044] Vòng xoay Phú Lâm,10.753346,106.633365,0
Q6 045,Q6 045,[Q6 045] Cư Xá Phú Lâm,10.751475,106.63089,0
Q6 046,Q6 046,[Q6 046] Hồ Bơi Phú Lâm,10.749589,106.628435,0
Q6 047,Q6 047,[Q6 047] Công Viên Phú Lâm,10.746384,106.624525,0
QBT 011,QBT 011,[QBT 011] Vòng xoay Kinh Dương Vương,10.744746,106.622475,0
QBT 012,QBT 012,[QBT 012] Bến xe Miền Tây,10.741973,106.619096,0
QBT 013,QBT 013,"[QBT 013] 428, Kinh Dương Vương",10.741383,106.618377,0
QBT 014,QBT 014,[QBT 014] Bệnh viện Triều An,10.739675,106.616392,0
QBT 015,QBT 015,[QBT 015] Hàng Dương,10.735138,106.613144,0
QBT 016,QBT 016,[QBT 016] SinCo,10.731674,106.611028,0
QBT 017,QBT 017,[QBT 017] Hoa hồng,10.729014,106.608276,0
QBT 018,QBT 018,[QBT 018] An Lạc,10.72733,106.605751,0
QBT 019,QBT 019,[QBT 019] Thời trang,10.725495,106.6029935,0
HBC 362,HBC 362,[HBC 362] Bãi xe Phương Trang,10.721022,106.600342,0
HBC 363,HBC 363,[HBC 363] Hưng Nhơn,10.712241,106.598791,0
HBC 364,HBC 364,[HBC 364] Dương Đình Cúc,10.70706,106.598089,0
HBC 365,HBC 365,[HBC 365] Nguyễn Hữu Trí,10.696112,106.596415,0
HBC 366,HBC 366,[HBC 366] Nút giao Bình Thuận,10.691884,106.595101,0
HBC 367,HBC 367,[HBC 367] An Phú Tây,10.687614,106.593717,0
HBC 385,HBC 385,[HBC 385] Công ty Thiên Lộc,10.68472,106.592333,0
HBC 368,HBC 368,[HBC 368] Văn phòng Ấp 5,10.681494,106.588969,0
HBC 369,HBC 369,[HBC 369] Ô tô Hải Âu,10.676528,106.583154,0
HBC 370,HBC 370,[HBC 370] Bùi Thanh Khiết,10.673877,106.580247,0
HBC 371,HBC 371,[HBC 371] Trịnh Như Khuê,10.670561,106.576653,0
HBC 372,HBC 372,[HBC 372] Trường Trần Đại Nghĩa,10.668874,106.57455,0
HBC 373,HBC 373,[HBC 373] Chợ Bình Chánh,10.66647,106.571503,0
HBC 274,HBC 274,[HBC 274] Trịnh Như Khuê,10.663265,106.571159,0
HBC 275,HBC 275,[HBC 275] Bờ Kinh,10.660914,106.5764,0
HBC 276,HBC 276,[HBC 276] Điện máy Lộc Đức,10.658794,106.579973,0
HBC 277,HBC 277,[HBC 277] Công ty Tia Sáng,10.657171,106.582661,0
HBC 278,HBC 278,[HBC 278] Hương lộ 11 - Đinh Đức Thiện,10.656021,106.584538,0
HBC 245,HBC 245,[HBC 245] Chùa Liên Hoa,10.656058,106.586008,0
HBC 246,HBC 246,[HBC 246] Xã Tân Quý Tây,10.657102,106.588406,0
HBC 247,HBC 247,[HBC 247] Đình Phước Bình,10.658441,106.591641,0
HBC 248,HBC 248,[HBC 248] Minh Quân,10.659975,106.594999,0
HBC 249,HBC 249,[HBC 249] Công ty Thông Hương,10.661657,106.598877,0
HBC 250,HBC 250,[HBC 250] Mầm non Bông Sen,10.66191,106.600685,0
HBC 251,HBC 251,[HBC 251] Trường Tân Quý Tây,10.659912,106.604617,0
HBC 252,HBC 252,[HBC 252] Chợ Hưng Long,10.658847,106.606822,0
HBC 253,HBC 253,[HBC 253] Phòng khám Thanh Lịch,10.657118,106.610336,0
HBC 254,HBC 254,[HBC 254] Trạm xăng dầu Mười Vũ,10.655631,106.613297,0
HBC 255,HBC 255,[HBC 255] Trạm y tế xã Hưng Long,10.653823,106.616902,0
HBC 256,HBC 256,[HBC 256] Đường liên ấp 3-4-5,10.652584,106.619316,0
HBC 257,HBC 257,[HBC 257] Ủy ban xã Hưng Long,10.651203,106.622046,0
HBC 258,HBC 258,[HBC 258] Ấp 2,10.648968,106.626386,0
HBC 259,HBC 259,[HBC 259] Hội Quán Thanh Niên,10.64747,106.629074,0
HBC 260,HBC 260,[HBC 260] Tân Liễu,10.645615,106.632668,0
HBC 261,HBC 261,[HBC 261] Hốc Hưu,10.644028,106.635656,0
HBC 262,HBC 262,[HBC 262] Trạm Xăng Hòa Hiệp,10.641819,106.639711,0
HBC 263,HBC 263,[HBC 263] Nguyễn Văn Thời,10.640617,106.641948,0
HBC 264,HBC 264,[HBC 264] Nguyễn Văn Long,10.639399,106.644271,0
BX 58,BX 58,[BX 58] Hưng Long,10.637669,106.647307,0
HBC 225,HBC 225,[HBC 225] Nguyễn Văn Long,10.639393,106.644459,0
HBC 226,HBC 226,[HBC 226] Nguyễn Văn Thời,10.640954,106.6416,0
HBC 227,HBC 227,[HBC 227] Trạm Xăng Hòa Hiệp,10.642109,106.639454,0
HBC 228,HBC 228,[HBC 228] Hốc Hưu,10.643933,106.636085,0
HBC 229,HBC 229,[HBC 229] Tân Liễu,10.64601,106.63219,0
HBC 230,HBC 230,[HBC 230] Hội Quán Thanh Niên,10.647491,106.629481,0
HBC 231,HBC 231,[HBC 231] Ấp 2,10.649242,106.626177,0
HBC 232,HBC 232,[HBC 232] Ủy ban xã Hưng Long,10.651377,106.622009,0
HBC 233,HBC 233,[HBC 233] Đường Liên ấp 3-4-5,10.652637,106.619589,0
HBC 234,HBC 234,[HBC 234] Trạm y tế xã Hưng Long,10.654008,106.616789,0
HBC 235,HBC 235,[HBC 235] Trạm xăng dầu Mười Vũ,10.655869,106.613104,0
HBC 236,HBC 236,[HBC 236] Phòng khám Thanh Lịch,10.657329,106.610223,0
HBC 237,HBC 237,[HBC 237] chợ Hưng Long,10.659011,106.606768,0
HBC 238,HBC 238,[HBC 238] Trường Tân Quý Tây,10.65996,106.604794,0
HBC 239,HBC 239,[HBC 239] Mầm non Bông Sen,10.662079,106.600594,0
HBC 240,HBC 240,[HBC 240] Công ty Thông Hương,10.661831,106.598958,0
HBC 241,HBC 241,[HBC 241] Minh Quân,10.66016,106.595128,0
HBC 242,HBC 242,[HBC 242] Đình Phước Bình,10.658599,106.591721,0
HBC 243,HBC 243,[HBC 243] Xã Tân Quý Tây,10.65726,106.588524,0
HBC 244,HBC 244,[HBC 244] Chùa Liên Hoa,10.656206,106.586035,0
HBC 269,HBC 269,[HBC 269] Đinh Đức Thiện - Hương lộ 11,10.656101,106.584646,0
HBC 270,HBC 270,[HBC 270] Công ty Tia Sáng,10.657213,106.582854,0
HBC 271,HBC 271,[HBC 271] Điện máy Lộc Đức,10.658847,106.580096,0
HBC 272,HBC 272,[HBC 272] Bờ Kinh,10.660903,106.576663,0
HBC 273,HBC 273,[HBC 273] Trịnh Như Khuê,10.663328,106.571363,0
HBC 380,HBC 380,[HBC 380] Chợ Bình Chánh,10.666301,106.571835,0
HBC 381,HBC 381,[HBC 381] Trường Trần Đại Nghĩa,10.668742,106.574904,0
HBC 382,HBC 382,[HBC 382] Trịnh Như Khuê,10.670197,106.576663,0
HBC 383,HBC 383,[HBC 383] Ô tô Hải Âu,10.675522,106.582333,0
HBC 384,HBC 384,[HBC 384] Văn phòng Ấp 5,10.681405,106.58928,0
HBC 386,HBC 386,[HBC 386] Công ty Thiên Lộc,10.68452,106.59251,0
HBC 387,HBC 387,[HBC 387] An Phú Tây,10.686876,106.593695,0
HBC 388,HBC 388,[HBC 388] Nút giao Bình Thuận,10.691816,106.595428,0
HBC 389,HBC 389,[HBC 389] Nguyễn Hữu Trí,10.697161,106.597059,0
HBC 390,HBC 390,[HBC 390] Dương Đình Cúc,10.706422,106.598276,0
HBC 392,HBC 392,[HBC 392] Hưng Nhơn,10.71202,106.599339,0
HBC 393,HBC 393,[HBC 393] Trần Đại Nghĩa,10.720838,106.600878,0
QBT 001,QBT 001,[QBT 001] Cầu An Lạc,10.724317,106.602337,0
QBT 002,QBT 002,[QBT 002] Hoa Hồng,10.726583,106.605191,0
QBT 003,QBT 003,[QBT 003] Hàng Dương,10.72832,106.607605,0
QBT 004,QBT 004,[QBT 004] Ủy ban,10.729977,106.610255,0
QBT 005,QBT 005,[QBT 005] Lâm Thành,10.734278,106.61298,0
QBT 006,QBT 006,[QBT 006] Tên Lửa,10.737541,106.614906,0
QBT 007,QBT 007,[QBT 007] Bệnh viện Triều An,10.739665,106.61687,0
QBT 008,QBT 008,[QBT 008] Bến xe Miền Tây,10.741035,106.618468,0
QBT 009,QBT 009,[QBT 009] Chợ An Lạc,10.743396,106.62136,0
QBT 010,QBT 010,[QBT 010] Kinh Dương Vương,10.744919,106.623162,0
Q6 048,Q6 048,[Q6 048] Công viên Phú Lâm,10.74776,106.626332,0
Q6 049,Q6 049,[Q6 049] Hồ Bơi Phú Lâm,10.748877,106.627727,0
Q6 050,Q6 050,[Q6 050] Cư xá Phú Lâm,10.751201,106.630753,0
Q6 051,Q6 051,[Q6 051] Vòng xoay Phú Lâm,10.753246,106.633521,0
Q6 039,Q6 039,[Q6 039] Cầu Ông Buông,10.754548,106.637995,0
Q6 040,Q6 040,[Q6 040] Ngân hàng ACB,10.754295,106.641245,0
Q6 041,Q6 041,[Q6 041] Trường Nguyễn Đức Cảnh,10.754021,106.644003,0
Q6 042,Q6 042,[Q6 042] Chùa Nam Phổ Đà,10.753789,106.645955,0
Q6 043,Q6 043,[Q6 043] Lò Siêu,10.753647,106.647323,0
QTD 077,QTD 077,[QTD 077] Ngã tư Thủ Đức,10.84828,106.77299,0
TPTD 224,TPTD 224,[TPTĐ 224] Ga metro Thủ Đức,10.84568492,106.7714007,0
QTD 078,QTD 078,[QTD 078] Betong Hải Âu,10.844297,106.77063,0
QTD 079,QTD 079,[QTD 079] UBND Quận 9,10.840745,106.768607,0
QBTH 052,QBTH 052,[QBTH 052] Vòng xoay Hàng Xanh,10.80146,106.709969,0
QBTH 051,QBTH 051,[QBTH 051] Đại học Hồng Bàng,10.799747,106.706268,0
QBTH 050,QBTH 050,[QBTH 050] Trạm Điện Nguyễn Cửu Vân,10.796775,106.703247,0
QBTH 049,QBTH 049,[QBTH 049] Cầu Điện Biên Phủ,10.795089,106.701654,0
Q1 073,Q1 073,[Q1 073] Đền Trần Hưng Đạo,10.791369,106.695238,0
Q1 074,Q1 074,[Q1 074] Công viên Lê Văn Tám,10.788896,106.692818,0
Q3 100,Q3 100,[Q3 100] Phạm Ngọc Thạch,10.786916,106.690918,0
Q3 102,Q3 102,[Q3 102] Bảo tàng Phụ Nữ,10.783533,106.687514,0
Q3 103,Q3 103,[Q3 103] Trần Quốc Thảo,10.782294,106.686242,0
Q3 104,Q3 104,[Q3 104] Ngã sáu Dân Chủ,10.778584,106.682616,0
Q6 052,Q6 052,[Q6 052] Cây xăng,10.751112,106.652538,0
Q6 023,Q6 023,[Q6 023] Ngân hàng Thương Tín,10.749699,106.648241,0
Q6 024,Q6 024,[Q6 024] CoopMart,10.74981,106.643584,0
Q6 025,Q6 025,[Q6 025] Cầu Hậu Giang,10.749736,106.641503,0
Q6 026,Q6 026,[Q6 026] Chợ Hoa,10.748714,106.637437,0
Q6 027,Q6 027,[Q6 027] Nguyễn Văn Luông,10.748039,106.634663,0
Q6 028,Q6 028,[Q6 028] Bình Phú,10.747697,106.633312,0
Q6 029,Q6 029,[Q6 029] Đồng Quê,10.746511,106.628382,0
Q6 030,Q6 030,[Q6 030] Mũi Tàu Phú Lâm,10.745536,106.624686,0
BX 46,BX 46,[BX 46] Bến xe Miền Tây,10.740705,106.618317,0
Q6 031,Q6 031,[Q6 031] Mũi Tàu Phú Lâm,10.745362,106.624466,0
Q6 032,Q6 032,[Q6 032] Đồng Quê,10.746311,106.628092,0
Q6 033,Q6 033,[Q6 033] Bình Phú,10.747623,106.633526,0
Q6 034,Q6 034,[Q6 034] Nguyễn Văn Luông,10.74826,106.636192,0
Q6 035,Q6 035,[Q6 035] Chợ Hoa,10.748814,106.638359,0
Q6 036,Q6 036,[Q6 036] CoopMart,10.74971,106.64283,0
Q6 037,Q6 037,[Q6 037] Ngân hàng Thương Tín,10.749552,106.648101,0
Q10 031,Q10 031,[Q10 031] Bệnh viện Nhi Đồng 1,10.767765,106.67038,0
Q10 032,Q10 032,[Q10 032] Chợ Phường 10,10.767623,106.673357,0
Q3 020,Q3 020,[Q3 020] Ngã 7 Lý Thái Tổ,10.768703,106.675224,0
Q3 021,Q3 021,[Q3 021] Cao Thắng,10.771164,106.67738,0
Q3 022,Q3 022,[Q3 022] Cư Xá Đô Thành,10.773248,106.67981,0
Q3 023,Q3 023,[Q3 023] Bệnh viện Bình Dân,10.774641,106.68145,0
Q3 024,Q3 024,[Q3 024] Cách Mạng tháng 8,10.777009,106.684145,0
Q3 025,Q3 025,[Q3 025] Bệnh viện Mắt TPHCM,10.778255,106.685471,0
Q3 026,Q3 026,[Q3 026] Sở Khoa học và Công nghệ,10.780286,106.687621,0
Q3 027,Q3 027,[Q3 027] Trường Marie Curie,10.782872,106.690369,0
Q3 028,Q3 028,[Q3 028] Phạm Ngọc Thạch,10.784965,106.692375,0
Q1 008,Q1 008,[Q1 008] Công Viên Lê Văn Tám,10.786934,106.694313,0
Q1 009,Q1 009,[Q1 009] Đinh Tiên Hoàng,10.789477,106.696783,0
QBTH 063,QBTH 063,[QBTH 063] Cầu Điện Biên Phủ,10.795115,106.702518,0
QBTH 062,QBTH 062,[QBTH 062] Trạm Điện Nguyễn Cửu Vân,10.797286,106.704567,0
QBTH 061,QBTH 061,[QBTH 061] Đại học Hồng Bàng,10.799873,106.707528,0
QBTH 060,QBTH 060,[QBTH 060] Vòng xoay Hàng Xanh,10.80108,106.710269,0
Q9 214,Q9 214,[Q9 214] Ngã 4 Bình Thái,10.836162,106.76666,0
Q9 215,Q9 215,[Q9 215] UBND quận 9,10.840466,106.769074,0
Q9 216,Q9 216,[Q9 216] Bê tông Hải Âu,10.843834,106.77079,0
TPTD 225,TPTD 225,[TPTĐ 225] Ga metro Thủ Đức,10.84590444,106.7720589,0
Q9 217,Q9 217,[Q9 217] Ngã 4 Thủ Đức,10.84857154,106.7735873,0
BX 63,BX 63,[BX 63] Bến xe Củ Chi,10.97109389,106.4822427,0
HCC 018,HCC 018,[HCC 018] Bến xe Củ Chi,10.972533,106.480347,0
HCC 019,HCC 019,[HCC 019] Bệnh viện Củ Chi,10.974756,106.475742,0
HCC 020,HCC 020,[HCC 020] Trạm xăng,10.976133,106.473129,0
HCC 021,HCC 021,[HCC 021] Công ty phân bón Sinh hóa Củ Chi,10.978179,106.469455,0
HCC 297,HCC 297,[HCC 297] Quán cơm 5 Hoàng,10.9812843,106.4638821,0
HCC 022,HCC 022,[HCC 022] Trạm xăng Phước Hiệp 1,10.98305,106.461232,0
HCC 344,HCC 344,[HCC 344] Đường số 606,10.9848068,106.4580838,0
HCC 023,HCC 023,[HCC 023] Đối diện UBND xa Phước Hiệp,10.991035,106.450378,0
HCC 024,HCC 024,[HCC 024] Đối diện Trường Tiểu học Phước Hiệp,10.993072,106.448448,0
HCC 025,HCC 025,[HCC 025] Cây xăng Phước Thạnh,10.996789,106.445058,0
HCC 349,HCC 349,[HCC 349] Đường 622,11.0027124,106.4367192,0
HCC 026,HCC 026,[HCC 026] UBND xã Phước Thạnh,11.0044672,106.4316224,0
QCCT028,QCCT028,[QCCT028] Ngã tư Phước Thạnh,11.00581186,106.4281413,0
HCC 144,HCC 144,[HCC 144] Chợ Phước Thạnh,11.005048,106.426697,0
HCC 282,HCC 282,[HCC 282] Trường THCS Phước Thạnh,11.0042448,106.4248578,0
HCC 102,HCC 102,[HCC 102] Trường Quang Trung,11.0031159,106.423671,0
HCC 146,HCC 146,[HCC 146] Cây xăng petrolimet 59,11.00006108,106.4221121,0
HCC 147,HCC 147,[HCC 147] Cổng chào Xã Thái Mỹ,10.993867,106.415817,0
HCC 148,HCC 148,[HCC 148] Hẻm 582,10.992703,106.413944,0
HCC 149,HCC 149,[HCC 149] Giáo xứ Mỹ Khánh,10.990917,106.409935,0
HCC 150,HCC 150,[HCC 150] Trường mầm non Thái Mỹ,10.991251,106.405235,0
HCC 1510,HCC 1510,[HCC 1510] Trường Trung học phổ thông Nguyễn Văn Xơ,10.9914451,106.4020403,0
HCC 281,HCC 281,[HCC 281] ĐD Trường Tiểu học Thái Mỹ,10.9910817,106.3997287,0
HCC 152,HCC 152,[HCC 152] Ủy Ban nhân dân Xã Thái Mỹ,10.991328,106.398463,0
HCC 153,HCC 153,[HCC 153] Ấp Bình Thượng 1,10.991302,106.393857,0
HCC 154,HCC 154,[HCC 154] Trương Thị Kiện,10.991721,106.390312,0
HCC 155,HCC 155,[HCC 155] Ngã 3 Ông Cống,10.992471,106.385681,0
HCC 156,HCC 156,[HCC 156] đường 687,10.99353,106.379446,0
HCC 157,HCC 157,[HCC 157] Trương Thị Kiện,10.993877,106.37443,0
HCC 158,HCC 158,[HCC 158] Ngã 3 Vuông Lầu,10.99363,106.372118,0
BX 100,BX 100,[BX 100] Cầu Tân Thái,10.983161,106.36442,0
HCC 089,HCC 089,[HCC 089] Ngã ba Vuông Lầu,10.9923069,106.3847724,0
HCC 090,HCC 090,[HCC 090] Trương Thị Kiện,10.993703,106.375471,0
HCC 091,HCC 091,[HCC 091] đường 687,10.993266,106.379929,0
HCC 092,HCC 092,[HCC 092] Ngã 3 Ông Cống,10.992433,106.3853,0
HCC 093,HCC 093,[HCC 093] Trương Thị Kiện,10.9919284,106.3892319,0
HCC 094,HCC 094,[HCC 094] Ấp Bình Thượng 1,10.991186,106.393275,0
HCC 095,HCC 095,[HCC 095] Ủy Ban nhân dân Xã Thái Mỹ,10.991118,106.397889,0
HCC 280,HCC 280,[HCC 280] Trường Tiểu học Thái Mỹ,10.9910817,106.3997287,0
HCC 096,HCC 096,[HCC 096] Trường trung học phổ thông Nguyễn Văn Xơ,10.99119183,106.4026167,0
HCC 097,HCC 097,[HCC 097] Trường Mầm non Thái Mỹ,10.991097,106.405458,0
HCC 098,HCC 098,[HCC 098] Giáo xứ Mỹ Khánh,10.9909066,106.4109281,0
HCC 099,HCC 099,[HCC 099] Hẻm 582,10.992892,106.414518,0
HCC 100,HCC 100,[HCC 100] Cổng chào Xã Thái Mỹ,10.994119,106.416675,0
HCC 101,HCC 101,[HCC 101] Cây xăng petrolimet 59,11.00035252,106.4223683,0
QCCT193,QCCT193,[QCCT193] Trường THPT Quang Trung,11.0030151,106.4243519,0
HCC 103,HCC 103,[HCC 103] Chợ Phước Thạnh,11.004793,106.426465,0
HCC 028,HCC 028,[HCC 028] Ngã tư Phước Thạnh,11.00581186,106.4281413,0
HCC 029,HCC 029,[HCC 029] Ủy Ban nhân dân Xã Phước Thạnh,11.00455991,106.4316192,0
HCC 348,HCC 348,[HCC 348] Đường 622,11.002966,106.435756,0
HCC 353,HCC 353,[HCC 353] Cây xăng Phước Thạnh 2,10.99864662,106.4432127,0
HCC 030,HCC 030,[HCC 030] ấp cây trôm,10.996617,106.44487,0
HCC 031,HCC 031,[HCC 031] Trường Tiểu học Phước Hiệp,10.9928,106.448334,0
HCC 032,HCC 032,[HCC 032] UBND xã Phước Hiệp,10.989567,106.451263,0
HCC 347,HCC 347,[HCC 347] Cây xăng Phước Thạnh 3,10.9867969,106.4549126,0
HCC 345,HCC 345,[HCC 345] Đường số 606,10.984809,106.458421,0
HCC 033,HCC 033,[HCC 033] Cây xăng Tài Lộc 3,10.982883,106.461014,0
HCC 298,HCC 298,[HCC 298] Quán cơm 5 Hoàng,10.9812843,106.4638821,0
HCC 034,HCC 034,[HCC 034] Công ty phân bón sinh hóa Củ Chi,10.977784,106.469632,0
HCC 035,HCC 035,[HCC 035] Ngã 3 Nguyễn Thị Rành,10.976109,106.472717,0
HCC 036,HCC 036,[HCC 036] Bệnh viện Củ Chi,10.973655,106.477443,0
HCC 037,HCC 037,[HCC 037] Bến xe Củ Chi,10.972091,106.48049,0
HCC 279,HCC 279,[HCC 279] chợ Củ Chi,10.9705148,106.4824074,0
BX84,BX84,[BX84] Bến xe buýt Chợ Lớn - B,10.751185,106.65107,0
Q6 072,Q6 072,[Q6 072] Bãi Sậy,10.748803,106.649303,0
Q6 013,Q6 013,[Q6 013] Công viên Phạm Đình Hổ,10.747702,106.647801,0
Q6 014,Q6 014,[Q6 014] Minh Phụng,10.747206,106.644534,0
Q6 111,Q6 111,[Q6 111] Bình Tiên,10.743718,106.642393,0
Q6 113,Q6 113,[Q6 113] Bà Lài,10.740371,106.636321,0
Q6 078,Q6 078,[Q6 078] Cầu Phạm Văn Chí,10.738521,106.635484,0
Q6 064,Q6 064,[Q6 064] Phạm Văn Chí,10.739016,106.633564,0
Q6 017,Q6 017,[Q6 017] Metro Bình Phú,10.741673,106.630994,0
Q6 018,Q6 018,[Q6 018] Đường số 23,10.741972,106.626015,0
Q6 004,Q6 004,[Q6 004] Lý Chiêu Hoàng,10.740065,106.623548,0
QBT 275,QBT 275,[QBT 275] Đường 38,10.738347,106.622009,0
Q8 080,Q8 080,[Q8 080] Đường Hoàng Ngân,10.723747,106.619992,0
Q8 145,Q8 145,[Q8 145] Trương Đình Hội,10.71959795,106.6193059,0
Q8 143,Q8 143,[Q8 143] Chợ Kiến Đức,10.71581518,106.6190378,0
Q8 144,Q8 144,[Q8 144] Nhựa Chợ Lớn,10.713311,106.618795,0
Q8 081,Q8 081,[Q8 081] Bến Phú Định,10.71135,106.61864,0
Q8 134,Q8 134,[Q8 134] Chùa Viên Giác,10.713359,106.616848,0
QBT 036,QBT 036,[QBT 036] Nhựa Long Thành,10.718234,106.613817,0
QBT 037,QBT 037,[QBT 037] Võ Văn Kiệt,10.72069,106.612229,0
QBT 279,QBT 279,[QBT 279] Cầu Nước Lên,10.719889,106.606146,0
HBC_1,HBC_1,[HBC_1] Dương Đình Cúc,10.705468,106.597397,0
HBC_2,HBC_2,[HBC_2] Thiên Hoàng Long,10.703001,106.59516,0
HBC_3,HBC_3,[HBC_3] Trạm Y tế Tân Kiên,10.70075,106.591431,0
HBC_4,HBC_4,[HBC_4] Trường Tân Kiên,10.698231,106.587038,0
HBC_5,HBC_5,[HBC_5] Cầu Chợ Đệm,10.695732,106.580933,0
HBC 415,HBC 415,[HBC 415] Xóm Giữa,10.696902,106.579045,0
HBC 416,HBC 416,[HBC 416] Ấp 5,10.699164,106.577581,0
HBC 417,HBC 417,[HBC 417] Đình Phục Đức,10.700497,106.575397,0
HBC 419,HBC 419,[HBC 419] Đường dẫn Cao tốc,10.702495,106.571792,0
HBC 462,HBC 462,[HBC 462] Bệnh viện Nhi Thành phố,10.708515,106.573026,0
HBC 473,HBC 473,[HBC 473] Y KHOA PHẠM NGỌC THẠNH,10.70946445,106.5769264,0
HBC 474,HBC 474,[HBC 474] Y KHOA PHẠM NGỌC THẠNH,10.70979353,106.5768276,0
BX_100,BX_100,[BX_100] Tân Nhựt,10.70803,106.560259,0
HBC 466,HBC 466,[HBC 466] THCS Tân Nhựt,10.704603,106.5666729,0
HBC 446,HBC 446,[HBC 446] Ngã 3 Trường học,10.703923,106.568112,0
HBC 447,HBC 447,[HBC 447] Đường dẫn Cao tốc,10.702305,106.572044,0
HBC 448,HBC 448,[HBC 448] Đình Phục Đức,10.70036,106.575456,0
HBC 449,HBC 449,[HBC 449] Ấp 5,10.699169,106.577446,0
HBC 450,HBC 450,[HBC 450] Xóm Giữa,10.69696,106.578884,0
HBC_6,HBC_6,[HBC_6] Cầu Chợ Đệm,10.6955,106.580526,0
HBC_7,HBC_7,[HBC_7] Trường Tân Kiên,10.697888,106.586523,0
HBC_8,HBC_8,[HBC_8] Trạm y tế Tân Kiên,10.700861,106.591737,0
HBC_9,HBC_9,[HBC_9] Thiên Hoàng Long,10.702716,106.59517,0
HBC_10,HBC_10,[HBC_10] Quốc lộ 1A,10.705547,106.597633,0
QBT 280,QBT 280,[QBT 280] Cầu Nước Lên,10.719552,106.606822,0
QBT 047,QBT 047,[QBT 047] Khu dân cư Hương lộ 5,10.72068,106.611877,0
QBT 048,QBT 048,[QBT 048] Nhựa Long Thành,10.718161,106.613464,0
Q8 133,Q8 133,[Q8 133] Chùa Viên Giác,10.712624,106.616989,0
Q8 075,Q8 075,[Q8 075] Bến Phú Định,10.71144,106.618795,0
Q8 076,Q8 076,[Q8 076] Nhựa Chợ Lớn,10.713332,106.618956,0
Q8 077,Q8 077,[Q8 077] Chợ Kiến Đức,10.715166,106.619139,0
Q8 079,Q8 079,[Q8 079] Trương Đình Hội,10.719183,106.619503,0
Q8 078,Q8 078,[Q8 078] Đường Hoàng Ngân,10.716711,106.619241,0
Q6 115,Q6 115,[Q6 115] Đường 38,10.73811,106.622095,0
Q6 001,Q6 001,[Q6 001] Lý Chiêu Hoàng,10.740239,106.623715,0
Q6 019,Q6 019,[Q6 019] Đường số 23,10.741862,106.626129,0
Q6 020,Q6 020,[Q6 020] Metro Bình Phú,10.741578,106.63086,0
Q6 069,Q6 069,[Q6 069] Phạm Văn Chí,10.739275,106.633413,0
Q6 081,Q6 081,[Q6 081] Cầu Phạm Văn Chí,10.738384,106.635447,0
Q6 114,Q6 114,[Q6 114] Bà Lài,10.740202,106.636246,0
Q6 112,Q6 112,[Q6 112] Bình Tiên,10.743607,106.642415,0
Q6 015,Q6 015,[Q6 015] Minh Phụng,10.747059,106.644244,0
Q6 016,Q6 016,[Q6 016] Công viên Phạm Đình Hổ,10.747728,106.648686,0
Q1 118,Q1 118,[Q1 118] Trần Hưng Đạo,10.768461,106.694984,0
Q1 161,Q1 161,[Q1 161] Trạm Trung chuyển trên đường Hàm Nghi,10.77086751,106.700807,0
Q1 196,Q1 196,[Q1 196] Bảo tàng Mỹ Thuật,10.76924831,106.6996708,0
Q1 001,Q1 001,[Q1 001] Calmette,10.767768,106.699219,0
Q4 014,Q4 014,[Q4 014] Chợ Xóm Chiếu,10.764703,106.706504,0
Q4 027,Q4 027,[Q4 027] Bưu Điện Quận 4,10.76385,106.70763,0
Q4 028,Q4 028,[Q4 028] Đại học Nguyễn Tất Thành,10.7618,106.70932,0
Q4 029,Q4 029,[Q4 029] Trường Nguyễn Trãi,10.759423,106.713359,0
Q4 030,Q4 030,[Q4 030] Cảng Sài Gòn,10.7579,106.715977,0
Q7 080,Q7 080,[Q7 080] Cầu Tân Thuận 2,10.752424,106.723927,0
Q7 082,Q7 082,[Q7 082] Cầu Tân Thuận 2,10.751697,106.724088,0
Q7 081,Q7 081,[Q7 081] Ủy ban Phường Tân Thuận Tây,10.747807,106.721728,0
Q7 084,Q7 084,[Q7 084] Cầu Lý Phục Man,10.742521,106.721508,0
Q7 085,Q7 085,[Q7 085] Nguyễn Thị Thập,10.739585,106.721444,0
Q7 088,Q7 088,[Q7 088] Bệnh viện Việt Pháp,10.731063,106.718912,0
Q7 087,Q7 087,[Q7 087] Nguyễn Lương Bằng,10.7294643,106.7133797,0
Q7 089,Q7 089,[Q7 089] Hưng Vượng,10.72934,106.709567,0
Q7 090,Q7 090,[Q7 090] Sky Garden,10.729234,106.7049,0
Q7 139,Q7 139,[Q7 139] Lê Văn Lương,10.72905,106.699315,0
Q7 092,Q7 092,[Q7 092] Đại học RMIT,10.728839,106.695061,0
HBC 001,HBC 001,[HBC 001] Trung Sơn,10.728639,106.687117,0
HBC 002,HBC 002,[HBC 002] Cầu Ông Bé,10.728575,106.683946,0
HBC 003,HBC 003,[HBC 003] Phúc Minh,10.728486,106.679472,0
HBC 004,HBC 004,[HBC 004] Phạm Hùng,10.7284,106.676537,0
HBC 005,HBC 005,[HBC 005] Cầu Xóm Củi,10.726741,106.667193,0
HBC 006,HBC 006,[HBC 006] Chùa Viên Minh,10.723442,106.660316,0
HBC 007,HBC 007,[HBC 007] Quốc lộ 50,10.720896,106.656861,0
HBC 008,HBC 008,[HBC 008] Sau Quốc lộ 50,10.718972,106.654415,0
HBC 33,HBC 33,[HBC 33] Khu đô thị Hạnh Phúc,10.716283,106.65105,0
HBC 010,HBC 010,[HBC 010] Cầu Bà Lớn,10.71174,106.645103,0
HBC 011,HBC 011,[HBC 011] Chung cư Conic,10.709506,106.64227,0
HBC 012,HBC 012,[HBC 012] Khu dân cư 13A,10.707397,106.639502,0
HBC 013,HBC 013,[HBC 013] Trịnh Quang Nghị,10.703602,106.634567,0
HBC 014,HBC 014,[HBC 014] Kim Hằng,10.701414,106.631713,0
HBC 015,HBC 015,[HBC 015] Cầu sập,10.69925,106.627235,0
HBC 016,HBC 016,[HBC 016] Cầu Cần Giuộc,10.696855,106.61828,0
HBC 017,HBC 017,[HBC 017] Đường vào Chợ Bình Điền,10.695133,106.612183,0
HBC 452,HBC 452,[HBC 452] Trạm thu phí Chợ Bình Điền,10.698405,106.609359,0
HBC 453,HBC 453,[HBC 453] Chợ Bình Điền,10.701984,106.608372,0
HBC 451,HBC 451,[HBC 451] Trạm thu phí Chợ Bình Điền,10.698547,106.609075,0
HBC 018,HBC 018,[HBC 018] Khu dân cư Nguyễn Minh,10.694145,106.60856,0
HBC 019,HBC 019,[HBC 019] Căn hộ Hoàng Quân,10.69335,106.605682,0
HBC 020,HBC 020,[HBC 020] Ấp 2,10.692048,106.600937,0
HBC 021,HBC 021,[HBC 021] Quốc lộ 1A,10.69075,106.596169,0
HBC 022,HBC 022,[HBC 022] Nguyễn Văn Linh,10.689686,106.595943,0
HBC 023,HBC 023,[HBC 023] đường Ấp 2,10.69152,106.602321,0
HBC 024,HBC 024,[HBC 024] Đường vào Chợ Bình Điền,10.693745,106.610159,0
HBC 025,HBC 025,[HBC 025] Trạm thu phí,10.694493,106.613388,0
HBC 026,HBC 026,[HBC 026] Cầu Cần Giuộc,10.696591,106.620603,0
HBC 027,HBC 027,[HBC 027] Cầu Sập,10.698183,106.626692,0
HBC 028,HBC 028,[HBC 028] Kim Hằng,10.700144,106.631413,0
HBC 029,HBC 029,[HBC 029] Trịnh Quang Nghị,10.702237,106.634218,0
HBC 030,HBC 030,[HBC 030] Khu dân cư 13A,10.705494,106.638354,0
HBC 031,HBC 031,[HBC 031] Đại học Văn Hiến (HungHau Campus),10.709337,106.643343,0
HBC 032,HBC 032,[HBC 032] Cầu Bà Lớn,10.711382,106.645961,0
HBC 033,HBC 033,[HBC 033] KHU ĐÔ THỊ HẠNH PHÚC,10.713791,106.648997,0
HBC 034,HBC 034,[HBC 034] Quốc lộ 50,10.717971,106.654356,0
HBC 035,HBC 035,[HBC 035] Qua Quốc lộ 50,10.719436,106.656303,0
HBC 036,HBC 036,[HBC 036] Chùa Viên Minh,10.722198,106.659973,0
HBC 037,HBC 037,[HBC 037] Cầu Xóm Củi,10.72574,106.666866,0
HBC 038,HBC 038,[HBC 038] Sân bóng mi ni,10.727321,106.673234,0
HBC 039,HBC 039,[HBC 039] Phạm Hùng,10.727517,106.67675,0
HBC 040,HBC 040,[HBC 040] Phúc Minh,10.727574,106.680121,0
HBC 041,HBC 041,[HBC 041] Cầu Ông Bé,10.727785,106.684177,0
HBC 042,HBC 042,[HBC 042] Trung Sơn,10.7279,106.687416,0
Q7 093,Q7 093,[Q7 093] Đại học RMIT,10.728011,106.695308,0
Q7 094,Q7 094,[Q7 094] Lê Văn Lương,10.727985,106.699787,0
Q7 095,Q7 095,[Q7 095] Phòng cháy chữa cháy Quận 7,10.728106,106.704031,0
Q7 096,Q7 096,[Q7 096] Nguyễn Đức Cảnh,10.728212,106.709341,0
Q7 097,Q7 097,[Q7 097] Co.op mart Phú Mỹ Hưng,10.728275,106.711557,0
Q7 098,Q7 098,[Q7 098] Cầu Thầy Tiêu,10.728375,106.714829,0
Q7 099,Q7 099,[Q7 099] bệnh viện Việt Pháp,10.730309,106.719646,0
Q7 100,Q7 100,[Q7 100] Cầu Đa Khoa,10.738937,106.721798,0
Q7 101,Q7 101,[Q7 101] Cầu Lý Phục Man,10.742031,106.721862,0
Q7 102,Q7 102,[Q7 102] Ủy ban phường Tân Thuận Tây,10.746975,106.721991,0
Q7 103,Q7 103,[Q7 103] Cầu Tân Thuận 2,10.751307,106.724174,0
Q4 031,Q4 031,[Q4 031] Cảng Sài Gòn,10.758443,106.7155,0
Q4 032,Q4 032,[Q4 032] Nhà thờ Thánh An Tôn,10.759771,106.713241,0
Q4 033,Q4 033,[Q4 033] Đại học Nguyễn Tất Thành,10.761557,106.710194,0
Q4 034,Q4 034,[Q4 034] Bưu Điện Quận 4,10.763744,106.707941,0
Q4 006,Q4 006,[Q4 006] Chợ Xóm Chiếu,10.764983,106.706471,0
Q4 007,Q4 007,[Q4 007] Đoàn Văn Bơ,10.763744,106.704031,0
BX101,BX101,[BX101] Bến xe buýt Chợ Lớn - A,10.751154,106.651293,0
Q6 063,Q6 063,[Q6 063] Nguyễn Thị Nhỏ,10.7517876,106.6507148,0
Q11 082,Q11 082,[Q11 082] Trạm Trần Quý - Tạ Uyên,10.758002,106.653603,0
Q11 013,Q11 013,[Q11 013] Tạ Uyên,10.760371,106.653763,0
Q11 014,Q11 014,[Q11 014] Lê Đại Hành,10.761562,106.656006,0
Q11 015,Q11 015,[Q11 015] Phú Thọ,10.762574,106.657881,0
Q10 059,Q10 059,[Q10 059] Bệnh viện Trưng Vương,10.770922,106.658913,0
Q10 058,Q10 058,[Q10 058] Đại học Bách Khoa (cổng sau),10.7731047,106.6611044,0
Q10 057,Q10 057,[Q10 057] Ngân hàng Quân Đội,10.775549,106.663017,0
Q10 069,Q10 069,[Q10 069] Thành Thái nối dài,10.77768,106.662285,0
Q10 097,Q10 097,[Q10 097] Trường THPT Nguyễn Du,10.778545,106.662254,0
Q10 094,Q10 094,[Q10 094] Ngã tư Đồng Nai,10.781157,106.661758,0
Q10 095,Q10 095,[Q10 095] Ngã tư Nguyễn Giản Thanh,10.782587,106.664886,0
Q10 096,Q10 096,[Q10 096] Công viên Lê Thị Riêng,10.785224,106.666237,0
QTB 054,QTB 054,[QTB 054] Bắc Hải,10.787486,106.663727,0
QTB 055,QTB 055,[QTB 055] Ngã ba Bành Văn Trân,10.788692,106.661453,0
QTB 056,QTB 056,[QTB 056] Ông Tạ,10.78963,106.659694,0
QTB 057,QTB 057,[QTB 057] Cư xá Tự Do,10.791448,106.656218,0
QTB 058,QTB 058,[QTB 058] Bệnh viện Thống Nhất,10.792649,106.653991,0
QTB 100,QTB 100,[QTB 100] Quán Vườn Dừa,10.803641,106.664909,0
QTB 014,QTB 014,[QTB 014] Sông Đáy,10.806961,106.664673,0
QTB 016,QTB 016,[QTB 016] Parkson Trường Sơn,10.80969,106.66494,0
BX 50,BX 50,[BX 50] Sân bay Tân Sơn Nhất,10.815592,106.66383,0
QTB 162,QTB 162,[QTB 162] Ga Quốc nội Sân bay Tân Sơn Nhất,10.8139389,106.6627094,0
QTB 154,QTB 154,[QTB 154] Đoàn tiếp viên,10.813099,106.669146,0
QTB 155,QTB 155,[QTB 155] Ngã tư Bạch Đằng,10.812968,106.67244,0
QTB 156,QTB 156,[QTB 156] Ngã ba Kênh Nhật Bản - Hồng Hà,10.813732,106.674371,0
QTB 157,QTB 157,[QTB 157] Vòng xoay Nguyễn Thái Sơn,10.814006,106.677616,0
QGV 155,QGV 155,[QGV 155 ] Siêu thị Văn Lang,10.826846,106.679209,0
QGV 156,QGV 156,[QGV 156] Công ty 32,10.8281,106.675487,0
QGV 157,QGV 157,[QGV 157] Nhà thờ Xóm Thuốc,10.829186,106.672606,0
QGV 158,QGV 158,[QGV 158] UBND Quận Gò Vấp,10.83103,106.669232,0
QGV 159,QGV 159,[QGV 159] VKSND Quận Gò Vấp,10.832948,106.666791,0
QGV 160,QGV 160,[QGV 160] Chùa Huỳnh Kim,10.835203,106.663368,0
QGV 161,QGV 161,[QGV 161] City Mart,10.835888,106.66104,0
QGV 151,QGV 151,[QGV 151] Chợ Cây Trâm,10.838691,106.657811,0
QGV 142,QGV 142,[QGV 142] Ngã ba Cây Trâm,10.842969,106.657205,0
QGV 143,QGV 143,[QGV 143] Câu lạc bộ Tenis,10.846104,106.657076,0
QGV 144,QGV 144,[QGV 144] Nhà hàng Tư Trì,10.849238,106.656636,0
QGV 145,QGV 145,[QGV 145] Ngã ba Lê Đức Thọ,10.854096,106.656105,0
QGV 060,QGV 060,[QGV 060] Nhà thờ Nữ Vương Hòa Bình,10.856419,106.654528,0
Q12 105,Q12 105,[Q12 105] Ngã tư Tân Thới Hiệp,10.861881,106.651199,0
Q12 106,Q12 106,[Q12 106] UBND Quận 12,10.861808,106.654053,0
Q12 107,Q12 107,[Q12 107] Bãi xe Tri Ân,10.861651,106.657127,0
Q12 108,Q12 108,[Q12 108] Cầu Bến Cát,10.861335,106.662247,0
Q12 109,Q12 109,[Q12 109] Gò Sao,10.861503,106.666458,0
Q12 110,Q12 110,[Q12 110] Cây xăng Thạnh Xuân,10.861577,106.671882,0
Q12 111,Q12 111,[Q12 111] Cầu Cả Bốn,10.861619,106.674446,0
Q12 112,Q12 112,[Q12 112] Bến xe Ngã tư Ga,10.861472,106.678078,0
BX37,BX37,[BX37] Bến xe Ngã tư Ga,10.862157,106.67836,0
Q12 071,Q12 071,[Q12 071] Khu QLGTĐT số 3,10.861967,106.674564,0
Q12 072,Q12 072,[Q12 072] Tô Ngọc Vân,10.861904,106.671935,0
Q12 073,Q12 073,[Q12 073] Trường Mầm non Ngôi Nhà Trẻ Thơ,10.861877,106.667461,0
Q12 074,Q12 074,[Q12 074] Cơ khí Minh Huy,10.861819,106.661389,0
Q12 075,Q12 075,[Q12 075] Đá hoa cương Chí Thành,10.861988,106.657183,0
Q12 076,Q12 076,[Q12 076] Quận ủy Quận 12,10.862114,106.653428,0
Q12 077,Q12 077,[Q12 077] Ngã tư Tân Thới Hiệp,10.862273,106.650757,0
QGV 061,QGV 061,[QGV 061] Nhà thờ Nữ Vương Hòa Bình,10.856836,106.653825,0
QGV 146,QGV 146,[QGV 146] Ngã ba Lê Đức Thọ,10.854149,106.655965,0
QGV 147,QGV 147,[QGV 147] Nhà hàng Tư Trì,10.84878,106.656631,0
QGV 148,QGV 148,[QGV 148] Câu lạc bộ Tennis,10.845888,106.656947,0
QGV 149,QGV 149,[QGV 149] Ngã ba Cây Trâm,10.843132,106.657071,0
QGV 150,QGV 150,[QGV 150] Chợ Cây Trâm,10.838069,106.657843,0
QGV 177,QGV 177,[QGV 177] City Mart,10.835614,106.661164,0
QGV 178,QGV 178,[QGV 178] Chùa Huỳnh Kim,10.835034,106.663127,0
QGV 179,QGV 179,[QGV 179] VKSND Quận Gò Vấp,10.83318,106.666126,0
QGV 180,QGV 180,[QGV 180] UBND Quận Gò Vấp,10.830593,106.669414,0
QGV 181,QGV 181,[QGV 181] Nhà Thờ Xóm Thuốc,10.82918,106.671903,0
QGV 182,QGV 182,[QGV 182] Xóm thuốc,10.82839,106.673995,0
QGV 183,QGV 183,[QGV 183] Công ty 32,10.827468,106.676688,0
QGV 184,QGV 184,[QGV 184] Siêu thị Văn Lang,10.826757,106.678813,0
QGV 051,QGV 051,[QGV 051] Chợ Tân Sơn Nhất,10.814627,106.677895,0
QTB 158,QTB 158,[QTB 158] Ngân hàng Quân Đội,10.815528,106.675422,0
QTB 159,QTB 159,[QTB 159] Ngã tư Hồng Hà,10.814285,106.669076,0
QTB 160,QTB 160,[QTB 160] Công ty Satsco,10.814137,106.666346,0
QTB 012,QTB 012,[QTB 012] Trường Ngô Sỹ Liên,10.810257,106.664673,0
QTB 013,QTB 013,[QTB 013] Siêu thị Super Bow,10.808049,106.66449,0
QTB 109,QTB 109,[QTB 109] Trần Quốc Hoàn,10.803644,106.663925,0
QTB 059,QTB 059,[QTB 059] Bệnh viện Thống Nhất,10.792391,106.654131,0
QTB 060,QTB 060,[QTB 060] Y tế Phường 4,10.791463,106.655885,0
QTB 061,QTB 061,[QTB 061] Hồ Bơi Cộng Hòa,10.790114,106.65846,0
QTB 062,QTB 062,[QTB 062] Ông Tạ,10.789261,106.660075,0
QTB 063,QTB 063,[QTB 063] Ngã ba Bành Văn Trân,10.78808,106.662315,0
Q10 083,Q10 083,[Q10 083] Công viên Lê Thị Riêng,10.786236,106.665777,0
Q10 091,Q10 091,[Q10 091] Công viên Lê Thị Riêng,10.784571,106.665756,0
Q10 092,Q10 092,[Q10 092] Ngã tư Nguyễn Giản Thanh,10.781973,106.663696,0
Q10 093,Q10 093,[Q10 093] Ngã tư Đồng Nai,10.781213,106.661819,0
Q10 090,Q10 090,[Q10 090] Trường THPT Nguyễn Du,10.779224,106.662399,0
Q10 070,Q10 070,[Q10 070] Thành Thái nối dài,10.777697,106.662086,0
Q10 062,Q10 062,[Q10 062] Ngân hàng Quân Đội,10.775531,106.662819,0
Q10 061,Q10 061,[Q10 061] Đại học Bách Khoa (cổng sau),10.773322,106.661125,0
Q10 060,Q10 060,[Q10 060] Bệnh viện Trưng Vương,10.771244,106.659096,0
Q11 001,Q11 001,[Q11 001] Nhà sách Phương Nam,10.763115,106.658409,0
Q11 002,Q11 002,[Q11 002] Lê Đại Hành,10.761813,106.6560421,0
Q11 003,Q11 003,[Q11 003] Tạ Uyên,10.7604889,106.6535785,0
Q11 083,Q11 083,[Q11 083] Trạm Trần Quý - Tạ Uyên,10.758068,106.653492,0
QTD 084,QTD 084,[QTD 084] Đầu đường Lê Văn Chí,10.850485,106.774025,0
QTD 085,QTD 085,[QTD 085] Nhà máy nước Thủ Đức,10.853954,106.773173,0
QTD 094,QTD 094,[QTD 094] Ngã ba Lê Văn Chí,10.854117,106.77195,0
QTD 095,QTD 095,[QTD 095] Tô Vĩnh Diện,10.854728,106.76843,0
QTD 226,QTD 226,[QTD 226] Hoàng Diệu 2,10.857191,106.766396,0
QTD 103,QTD 103,[QTD 103] Ngã ba Linh Trung đường số 6,10.860866,106.768479,0
QTD 104,QTD 104,[QTD 104] Ngã ba đường 14,10.860864,106.770905,0
QTD 105,QTD 105,[QTD 105] Đường số 14,10.861798,106.772301,0
QTD 171,QTD 171,[QTD 171] ĐH Kinh tế Luật,10.869306,106.776724,0
QTD 172,QTD 172,[QTD 172] Công ty điện tử Samsung,10.868691,106.778656,0
QTD 173,QTD 173,[QTD 173] ĐH Nông Lâm,10.867122,106.787277,0
QTD 181,QTD 181,[QTD 181] ĐH Nông Lâm,10.867404,106.787265,0
QTD 182,QTD 182,[QTD 182] Công ty điện tử Samsung,10.867867,106.782201,0
QTD 183,QTD 183,[QTD 183] Đại học Kinh tế -Luật,10.869274,106.777909,0
QTD 100,QTD 100,[QTD 100] Đường số 14,10.861588,106.772079,0
QTD 101,QTD 101,[QTD 101] Ngã ba đường 14,10.861013,106.770689,0
QTD 102,QTD 102,[QTD 102] Ngã ba Linh Trung đường số 6,10.860602,106.767921,0
QTD 227,QTD 227,[QTD 227] Hoàng Diệu 2,10.85706832,106.7662122,0
QTD 098,QTD 098,[QTD 098] Tô Vĩnh Diện,10.854312,106.768898,0
QTD 099,QTD 099,[QTD 099] Ngã ba Lê Văn Chí,10.854164,106.772385,0
QTD 092,QTD 092,[QTD 092] Nhà máy nước Thủ Đức,10.853545,106.773216,0
QTD 093,QTD 093,[QTD 093] Đầu đường Lê Văn Chí,10.850766,106.773994,0
QBTH 001,QBTH 001,[QBTH 001] Chợ Hàng Xanh,10.802998,106.710441,0
HCC 104,HCC 104,[HCC 104] Trường tiểu học An Phước,11.006873,106.428219,0
HCC 105,HCC 105,[HCC 105] Ấp Phước Hưng,11.0094339,106.4311888,0
HCC 106,HCC 106,[HCC 106] Miếu thờ Họ Ngô,11.014161,106.434533,0
HCC 107,HCC 107,[HCC 107] Bàu điều,11.017773,106.436716,0
HCC 108,HCC 108,[HCC 108] đường 703,11.02663,106.441877,0
HCC 109,HCC 109,[HCC 109] Tỉnh Lộ 2,11.034043,106.446742,0
HCC 321,HCC 321,[HCC 321] Tỉnh lộ 7,11.0355049,106.446778,0
HCC 322,HCC 322,[HCC 322] Trường tiểu học Liên Trung,11.0419639,106.4405766,0
HCC 323,HCC 323,[HCC 323] Kênh Đông,11.0467243,106.4362094,0
HCC 324,HCC 324,[HCC 324] Nhà may Bích Liễu,11.0503554,106.43273,0
HCC 325,HCC 325,[HCC 325] Văn phòng ấp Trung Hưng,11.0554126,106.4275574,0
HCC 326,HCC 326,[HCC 326] Cây xăng Sông Châu,11.0562441,106.426895,0
HCC 327,HCC 327,[HCC 327] Bố Heo,11.0562441,106.426895,0
BX 65,BX 65,[BX 65] Bố Heo,11.0619217,106.421696,0
HCC 328,HCC 328,[HCC 328] Bố Heo,11.0562441,106.426895,0
HCC 329,HCC 329,[HCC 329] cây xăng Sông Châu,11.0562441,106.426895,0
HCC 330,HCC 330,[HCC 330] văn phòng Ấp Trung Hưng,11.0560704,106.4270564,0
HCC 331,HCC 331,[HCC 331] Nhà may Bích Liễu,11.0503409,106.4320311,0
HCC 332,HCC 332,[HCC 332] Kênh Đông,11.046616,106.435804,0
HCC 333,HCC 333,[HCC 333] Trường tiểu học Liên Trung,11.0425303,106.4397081,0
HCC 334,HCC 334,[HCC 334] Tỉnh lộ 7,11.035078,106.4467536,0
QCCT186,QCCT186,[QCCT186] Tỉnh lộ 2,11.0338366,106.4463174,0
HCC 139,HCC 139,[HCC 139] đường 703,11.027372,106.44215,0
HCC 140,HCC 140,[HCC 140] Bàu điều,11.01753,106.436372,0
HCC 141,HCC 141,[HCC 141] Miếu thờ họ Ngô,11.0137936,106.4342048,0
HCC 142,HCC 142,[HCC 142] Ấp Phước Hưng,11.009429,106.4309778,0
HCC 143,HCC 143,[HCC 143] trường tiểu học An Phước,11.0071797,106.4284054,0
Q1 015,Q1 015,[Q1 015] Trạm Trung chuyển trên đường Hàm Nghi,10.770943,106.699562,0
BX 96,BX 96,[BX 96] Nhà ga T3,10.811277,106.65384,0
QTB163,QTB163,[QTB163] Nhà ga T3,10.8109261,106.652868,0
Q1 185,Q1 185,[Q1 185] Trạm Trung chuyển trên đường Hàm Nghi,10.771117,106.700764,0
BX 71,BX 71,[BX 71] Cầu Kênh Lộ,10.602154,106.741635,0
HNB 060,HNB 060,[HNB 060] Nhà Tưởng niệm Liệt sỹ Nhà Bè,10.604189,106.741308,0
HNB 059,HNB 059,[HNB 059] Chùa Phước Linh,10.610005,106.740074,0
HNB 058,HNB 058,[HNB 058] Công an xã Hiệp Phước,10.617645,106.739157,0
HNB 057,HNB 057,[HNB 057] Giáo xứ Tin Mừng,10.622153,106.738159,0
HNB 064,HNB 064,[HNB 064] Thành Công,10.625662,106.7374815,0
HNB 055,HNB 055,[HNB 055] Ngã tư Long Hậu,10.631169,106.736104,0
HNB 053,HNB 053,[HNB 053] Cầu Hiệp Phước,10.634638,106.735364,0
HNB_098,HNB_098,[HNB_098] Chợ tạm,10.6389862,106.7341241,0
HNB 052,HNB 052,[HNB 052] Trung tâm dạy nghề,10.643189,106.732677,0
HNB 051,HNB 051,[HNB 051] Công ty may Đại Sơn,10.64717,106.731384,0
HNB 050,HNB 050,[HNB 050] Chợ Bà Chồi,10.650117,106.730461,0
HNB 049,HNB 049,[HNB 049] Bệnh viện Nhân Tâm,10.653391,106.729415,0
HNB 048,HNB 048,[HNB 048] Trường Long Thới,10.657133,106.728203,0
HNB 157,HNB 157,[HNB 157] Trạm radar thời tiết Nhà Bè,10.6562368,106.7290121,0
HNB 047,HNB 047,[HNB 047] Hàng Tre,10.663465,106.726213,0
HNB 037,HNB 037,[HNB 037] Cầu Bà Chiêm,10.671605,106.724576,0
HNB 038,HNB 038,[HNB 038] Cầu Mương Chuối,10.672733,106.729568,0
HNB 039,HNB 039,[HNB 039] Ủy ban huyện Nhà Bè,10.67375,106.734243,0
HNB 040,HNB 040,[HNB 040] Trường tiểu học Nguyễn Bình,10.6746,106.737968,0
HNB 041,HNB 041,[HNB 041] Đình Đức Hưng Thạnh,10.675433,106.741814,0
HNB 042,HNB 042,[HNB 042] Nguyễn Bình,10.67595,106.744034,0
HNB 043,HNB 043,[HNB 043] Đại lý bảo hiểm xe máy,10.67668,106.747353,0
HNB 044,HNB 044,[HNB 044] Ngã Ba Bờ Đăng,10.6776,106.751465,0
HNB 020,HNB 020,[HNB 020] Công Tiến Thọ,10.679507,106.75071,0
HNB 021,HNB 021,[HNB 021] Đào Tông Nguyên,10.681985,106.746994,0
HNB 022,HNB 022,[HNB 022] Chùa Pháp Võ,10.684125,106.745476,0
HNB 023,HNB 023,[HNB 023] Ngân hàng Agribank,10.687393,106.743202,0
HNB 024,HNB 024,[HNB 024] Chùa Lá,10.68996,106.741909,0
HNB 025,HNB 025,[HNB 025] Trường Lâm Văn Bền,10.693397,106.740723,0
HNB 027,HNB 027,[HNB 027] Công An Thị Trấn Nhà Bè,10.695332,106.740026,0
HNB 026,HNB 026,[HNB 026] Nha khoa Khánh Minh,10.698273,106.738996,0
HNB 002,HNB 002,[HNB 002] Chợ Phú Xuân,10.70114,106.738315,0
Q7 168,Q7 168,[Q7 168] Khu dân cư Kỹ Nguyên,10.704941,106.735246,0
Q7 192,Q7 192,[Q7 192] Đường 15B,10.70435,106.730171,0
HNB 141,HNB 141,[HNB 141] Cầu Phước Long,10.702506,106.721985,0
HNB 139,HNB 139,[HNB 139] Nguyễn Hữu Thọ,10.697598,106.718633,0
HNB 137,HNB 137,[HNB 137] Phạm Hữu Lầu,10.694588,106.707104,0
HNB 092,HNB 092,[HNB 092] Thu Liễu,10.700297,106.70431,0
HNB 091,HNB 091,[HNB 091] Bệnh viện huyện Nhà Bè,10.704593,106.703687,0
HNB 090,HNB 090,[HNB 090] Ngọc Lâm,10.708631,106.702759,0
HNB 089,HNB 089,[HNB 089] Đào Sư Tích,10.713317,106.701202,0
HNB 135,HNB 135,[HNB 135] Trường THCS Lê Thành Công,10.711925,106.695732,0
HNB 136-1,HNB 136-1,[HNB 136-1] Đào sư Tích,10.712445,106.6979189,0
HNB 139-1,HNB 139-1,[HNB 139-1] Đào sư Tích,10.6994718,106.6858385,0
HNB 145-1,HNB 145-1,[HNB 145-1] Đào sư Tích,10.6992603,106.6861829,0
HNB 138-1,HNB 138-1,[HNB 138-1] Đào sư Tích,10.7035572,106.6875698,0
HNB 140-1,HNB 140-1,[HNB 140-1] Đào sư Tích,10.6950495,106.6842882,0
HNB 144-1,HNB 144-1,[HNB 144-1] Đào sư Tích,10.6878301,106.6827456,0
HNB 01009,HNB 01009,[HNB 01009] Đào sư Tích,10.6878301,106.6827456,0
TĐC_110,TĐC_110,[TĐC_110] Bến Đò Ấp 3,10.683698,106.680422,0
HNB 142-1,HNB 142-1,[HNB 142-1] Đào sư Tích,10.7002794,106.6863782,0
HNB 137-1,HNB 137-1,[HNB 137-1] Đào sư Tích,10.7031804,106.6875889,0
HNB 141-1,HNB 141-1,[HNB 141-1] Đào Sư Tích,10.7002794,106.6863782,0
HNB 134,HNB 134,[HNB 134] Trường THCS Lê Thành Công,10.711951,106.696199,0
HNB 082,HNB 082,[HNB 082] Đào Sư Tích,10.712937,106.701193,0
HNB 081,HNB 081,[HNB 081] Ngọc Lâm,10.708304,106.702652,0
HNB 080,HNB 080,[HNB 080] Bệnh viện huyện Nhà Bè,10.70505,106.703484,0
HNB 079,HNB 079,[HNB 079] Thu Liễu,10.699886,106.704202,0
HNB 078,HNB 078,[HNB 078] Phạm Hữu Lầu,10.695667,106.704834,0
HNB 136,HNB 136,[HNB 136] Phạm Hữu Lầu,10.694377,106.707115,0
HNB 138,HNB 138,[HNB 138] Nguyễn Hữu Thọ,10.697498,106.718767,0
HNB 140,HNB 140,[HNB 140] Cầu Phước Long,10.702189,106.721792,0
Q7 191,Q7 191,[Q7 191] Đường 15B,10.70425,106.730644,0
Q7 169,Q7 169,[Q7 169] Khu dân cư Kỹ Nguyên,10.704788,106.735198,0
HNB 001,HNB 001,[HNB 001] Chợ Phú Xuân,10.701088,106.73817,0
HNB 028,HNB 028,[HNB 028] Nha khoa Khánh Minh,10.6984,106.738785,0
HNB 003,HNB 003,[HNB 003] Công an Thị trấn Nhà Bè,10.695869,106.739666,0
HNB 004,HNB 004,[HNB 004] Trường Lâm Văn Bền,10.69345,106.740546,0
HNB 005,HNB 005,[HNB 005] Chùa Lá,10.690113,106.741694,0
HNB 006,HNB 006,[HNB 006] Ngân hàng Agribank,10.686992,106.743314,0
HNB 007,HNB 007,[HNB 007] Chùa Pháp Võ,10.683998,106.74538,0
HNB 008,HNB 008,[HNB 008] Đào Tông Nguyên,10.682021,106.746764,0
HNB 009,HNB 009,[HNB 009] Công Tiến Thọ,10.679275,106.750803,0
HNB 010,HNB 010,[HNB 010] Ngã Ba Bờ Đăng,10.6784,106.753196,0
HNB 029,HNB 029,[HNB 029] Ngã Ba Bờ Đăng,10.67775,106.751747,0
HNB 030,HNB 030,[HNB 030] Đại lý bảo hiểm xe máy,10.676867,106.747803,0
HNB 031,HNB 031,[HNB 031] Rạch Ngang,10.676117,106.744499,0
HNB 032,HNB 032,[HNB 032] Đình Đức Hưng Thạnh,10.67545,106.741402,0
HNB 033,HNB 033,[HNB 033] Trường tiểu học Nguyễn Bình,10.67475,106.738251,0
HNB 034,HNB 034,[HNB 034] Ủy ban huyện Nhà Bè,10.67385,106.734154,0
HNB 035,HNB 035,[HNB 035] Cầu Mương Chuối,10.673017,106.730316,0
HNB 036,HNB 036,[HNB 036] Cầu Bà Chiêm,10.671817,106.724968,0
HNB 045,HNB 045,[HNB 045] Nguyễn Văn Tạo,10.670545,106.72375,0
HNB 112,HNB 112,[HNB 112] Vòng xoay Long Thới,10.667366,106.724791,0
HNB 073,HNB 073,[HNB 073] Hàng Tre,10.663817,106.725929,0
HNB 156,HNB 156,[HNB 156] Trạm radar thời tiết Nhà Bè,10.659762,106.727046,0
HNB 072,HNB 072,[HNB 072] Trường Long Thới,10.656775,106.728176,0
HNB 071,HNB 071,[HNB 071] Bệnh viện Nhân Tâm,10.6529,106.729431,0
HNB 070,HNB 070,[HNB 070] Chợ Bà Chồi,10.650117,106.730316,0
HNB 069,HNB 069,[HNB 069] Công ty may Đại Sơn,10.647491,106.731148,0
HNB 068,HNB 068,[HNB 068] Trung tâm dạy nghề,10.642867,106.732651,0
HNB_097,HNB_097,[HNB_097] Chợ tạm,10.666621,106.7252368,0
HNB 066,HNB 066,[HNB 066] Cầu Hiệp Phước,10.634253,106.735284,0
HNB 065,HNB 065,[HNB 065] Ngã tư Long Hậu,10.630992,106.736023,0
HNB 114,HNB 114,[HNB 114] Thành Công,10.626165,106.737118,0
HNB 056,HNB 056,[HNB 056] Giáo xứ Tin Mừng,10.622401,106.737939,0
HNB 063,HNB 063,[HNB 063] Công an xã Hiệp Phước,10.617386,106.739017,0
HNB 062,HNB 062,[HNB 062] Chùa Phước Linh,10.609535,106.739983,0
HNB 061,HNB 061,[HNB 061] Nhà Tưởng niệm Liệt sỹ Nhà Bè,10.604421,106.741072,0
Q12 125,Q12 125,[Q12 125] Cây xăng Quân Đội,10.84936,106.611274,0
Q12 127,Q12 127,[Q12 127] Trung tâm Văn hóa Quận 12,10.85466,106.607863,0
HHM 022,HHM 022,[HHM 022] Liên đoàn lao động Hóc Môn,10.857115,106.6062,0
HHM 023,HHM 023,[HHM 023] Cây xăng Củ Cải,10.859823,106.604306,0
HHM 024,HHM 024,[HHM 024] Ngã 3 Củ Cải,10.862014,106.602697,0
HHM 245,HHM 245,[HHM 245] Trường Đại học Ngoại ngữ - Tin học TP.HCM,10.8655251,106.6006265,0
HHM 025,HHM 025,[HHM 025] Trường học Tân Xuân,10.866782,106.599349,0
HHM 026,HHM 026,[HHM 026] Ngã 3 Bùi Môn,10.870075,106.597075,0
HHM TT 002,HHM TT 002,[HHM TT 002] Lê Thị Hà 02,10.8716985,106.5974148,0
HHM TT 004,HHM TT 004,[HHM TT 004] Lê Thị Hà 04,10.8752623,106.5988422,0
HHM TT 006,HHM TT 006,[HHM TT 006] Lê Thị Hà 06,10.8784673,106.5994562,0
HHM TT 008,HHM TT 008,[HHM TT 008] Lê Thị Hà 08,10.8817081,106.59908,0
HHM TT 010,HHM TT 010,[HHM TT 010] Lê Thị Hà 10,10.8780283,106.5992749,0
HHM001,HHM001,[HHM001] Chợ Hóc Môn,10.890441,106.596673,0
HHM002,HHM002,[HHM002] Nhà trẻ Phước An,10.892601,106.597268,0
HHM 114,HHM 114,[HHM 114] nhà văn hóa thiếu nhi huyện Hóc Môn,10.896062,106.598818,0
HHM 115,HHM 115,[HHM 115] Lê Thị Lơ,10.898564,106.599768,0
HHM 116,HHM 116,[HHM 116] Tân Hiệp 35,10.901319,106.600052,0
HHM 122,HHM 122,[HHM 122] Công ty Nam Ho,10.905967,106.599667,0
HHM 117,HHM 117,[HHM 117] Ngã 3 Ông Trác,10.910474,106.599934,0
HHM 118,HHM 118,[HHM 118] Cây xăng Tài Lộc 3,10.915436,106.600454,0
HCC 251,HCC 251,[HCC 251] Ngã 3 Bình Mỹ,10.92135,106.600777,0
HCC 301,HCC 301,[HCC 301] Công ty Ngọc Châu,10.9322803,106.6031188,0
HCC 299,HCC 299,[HCC 299] Cầu Tân Thạnh Đông,10.9392639,106.6040684,0
HCC 309,HCC 309,[HCC 309] Trường mẫu giáo Tân Thạnh Đông,10.944157,106.6050035,0
HCC 253,HCC 253,[HCC 253] Trường tiểu học Tân Thạnh Đông 1,10.9484,106.605347,0
HCC 254,HCC 254,[HCC 254] Quán Hoa Sứ,10.952317,106.602753,0
HCC 255,HCC 255,[HCC 255] San banh,10.955767,106.600517,0
HCC 256,HCC 256,[HCC 256] UBND Tân Thạnh Đông,10.961517,106.59608,0
HCC 303,HCC 303,[HCC 303] Cây xăng 57,10.9674491,106.5905898,0
HCC 304,HCC 304,[HCC 304] Chợ Hố Bom,10.9704193,106.5878003,0
HCC 305,HCC 305,[HCC 305] Trường cấp 2 Tân Thạnh Đông,10.9694625,106.5886438,0
HCC 306,HCC 306,[HCC 306] Cửa hàng sữa Việt Xuân,10.9761281,106.5825432,0
QCCT066,QCCT066,[QCCT066] Cây xăng Quang Vinh,10.976567,106.582016,0
QCCT067,QCCT067,[QCCT067] Công ty Hongwon,10.980067,106.57872,0
QCCT068,QCCT068,[QCCT068] Ngã tư Tân Quy,10.982237,106.577179,0
QCCT069,QCCT069,[QCCT069] Ngã tư Tân Quy,10.984835,106.576105,0
QCCT070,QCCT070,"[QCCT070] Chùa Pháp Bửu, cây xăng 63",10.988501,106.574593,0
HCC 357,HCC 357,[HCC 357] Tỉnh lộ 15,10.989312,106.574963,0
HCC 358,HCC 358,[HCC 358] Giao lộ Phạm Thị Lòng - Nguyễn Thị Minh,10.989143,106.577704,0
BX 62,BX 62,[BX 62] Bến xe buýt Tân Quy,10.984251,106.578176,0
QCCT136,QCCT136,[QCCT136] Ngã tư Tân Quy,10.982633,106.576881,0
QCCT137,QCCT137,[QCCT137] Công ty Hongwon,10.979333,106.5793,0
QCCT138,QCCT138,[QCCT138] Cây xăng Quang Vinh,10.97605,106.582382,0
QCCT139,QCCT139,[QCCT139] Cửa hàng sữa Việt Xuân,10.973317,106.584953,0
QCCT140,QCCT140,[QCCT140] Trường cấp 2 Tân Thạnh Đông,10.9693,106.58873,0
QCCT141,QCCT141,[QCCT141] Miếu Bà Chúa Xứ,10.966817,106.591049,0
QCCT142,QCCT142,[QCCT142] Cây xăng 57,10.963883,106.593834,0
HCC 151,HCC 151,[HCC 151] Chợ Chiều,10.961017,106.596382,0
QCCT144,QCCT144,[QCCT144] Sân banh,10.9552,106.600815,0
QCCT145,QCCT145,[QCCT145] Quán Hoa Sứ,10.952767,106.602386,0
QCCT146,QCCT146,[QCCT146] Trường tiểu học Tân Thạnh Đông 1,10.9481,106.605453,0
QCCT147,QCCT147,[QCCT147] Mẫu giáo Tân Thạnh Đông,10.9448,106.605286,0
HCC 300,HCC 300,[HCC 300] Cầu Tân Thạnh Đông,10.9399062,106.6038266,0
HCC 302,HCC 302,[HCC 302] Công ty Ngọc Châu,10.9322803,106.6031188,0
QCCT148,QCCT148,[QCCT148] Ngã 3 Bình Mỹ,10.921883,106.600868,0
HHM 119,HHM 119,[HHM 119] Cây xăng Tài Lộc 3,10.914961,106.600202,0
HHM 120,HHM 120,[HHM 120] Ngã 3 Ông Trác,10.911,106.599741,0
HHM 121,HHM 121,[HHM 121] Công ty Nam Ho,10.906902,106.599548,0
HHM 123,HHM 123,[HHM 123] Tân Hiệp 35,10.901687,106.599757,0
HHM 124,HHM 124,[HHM 124] Lê Thị Lơ,10.898843,106.599677,0
HHM005,HHM005,[HHM005] Nhà văn hóa Thiếu nhi huyện Hóc Môn,10.9063757,106.5995334,0
HHM003,HHM003,[HHM003] Nhà trẻ Phước An,10.893312,106.597397,0
HHM004,HHM004,[HHM004] Chợ Hóc Môn,10.890146,106.596512,0
HHM TT 009,HHM TT 009,[HHM TT 009] Lê Thị Hà 09,10.8711682,106.5971475,0
HHM TT 007,HHM TT 007,[HHM TT 007] Lê Thị Hà 07,10.8817561,106.5987156,0
HHM TT 005,HHM TT 005,[HHM TT 005] Lê Thị Hà 05,10.878529,106.5990955,0
HHM TT 003,HHM TT 003,[HHM TT 003] Lê Thị Hà 03,10.8773109,106.5991645,0
HHM TT 001,HHM TT 001,[HHM TT 001] Lê Thị Hà 01,10.8716029,106.5971156,0
HHM 050,HHM 050,[HHM 050] Ngã 3 Bùi Môn,10.869954,106.596758,0
HHM 051,HHM 051,[HHM 051] Trường học Tân Xuân,10.866919,106.598904,0
HHM 052,HHM 052,[HHM 052] Ngân Hàng Aribank,10.862546,106.601978,0
HHM 053,HHM 053,[HHM 053] Ngã 3 Củ Cải,10.860602,106.603324,0
HHM 055,HHM 055,[HHM 055] Chùa Linh Sơn,10.85662,106.606178,0
HHM 056,HHM 056,[HHM 056] Ngã tư Trung Chánh,10.853595,106.608152,0
HHM 057,HHM 057,[HHM 057] Cư xá Bà Điểm,10.849713,106.610641,0
HCC 211,HCC 211,[HCC 211] Trung tâm văn hóa Củ Chi,10.9689,106.487421,0
HCC 212,HCC 212,[HCC 212] Trường trung cấp nghề Củ Chi,10.97069,106.490613,0
HCC 213,HCC 213,[HCC 213] Ủy Ban nhân dân huyện Củ Chi,10.972928,106.49455,0
HCC 214,HCC 214,[HCC 214] Ủy Ban nhân dân thị Trấn Củ Chi,10.975593,106.499153,0
HCC 215,HCC 215,[HCC 215] Can Trường,10.97781,106.503015,0
HCC 216,HCC 216,[HCC 216] Tỉnh lộ 2,10.981067,106.508751,0
HCC 217,HCC 217,[HCC 217] Cây xăng Hoàng Sơn,10.98274,106.512752,0
HCC 218,HCC 218,[HCC 218] Trần Văn Chẩm,10.983777,106.516877,0
QCCT320,QCCT320,[QCCT320] Trường tiểu học Phước Vĩnh An,10.98462,106.520122,0
HCC 220,HCC 220,[HCC 220] Cây Bài,10.984693,106.525143,0
QCCT322,QCCT322,[QCCT322] Ấp 6,10.984651,106.529735,0
QCCT323,QCCT323,[QCCT323] Công viên Nước Củ Chi,10.985157,106.53415,0
HCC 223,HCC 223,[HCC 223] Cây xăng petrolimet 58,10.985825,106.539928,0
HCC 224,HCC 224,[HCC 224] Ấp 5 (Thành Đạt),10.984377,106.545163,0
HCC 225,HCC 225,[HCC 225] Đồng Mã Vôi,10.984202,106.551338,0
HCC 226,HCC 226,[HCC 226] Trường tiểu học Tân Thạnh Tây,10.984388,106.554165,0
HCC 227,HCC 227,[HCC 227] UBND xã Tân Thạnh Tây,10.984609,106.561933,0
HCC 228,HCC 228,[HCC 228] Công ty Thái Hà,10.984314,106.565977,0
HCC 229,HCC 229,[HCC 229] Nguyễn Kim Cương,10.983945,106.571572,0
HCC 230,HCC 230,[HCC 230] Ngã tư Tân Quy,10.983735,106.574834,0
HCC 232,HCC 232,[HCC 232] Trường PTTH Trung Phú,10.98335,106.580037,0
HCC 231,HCC 231,[HCC 231] Công ty Samho,10.983245,106.582382,0
HCC 235,HCC 235,[HCC 235] Công ty SAEHWAVINA,10.982734,106.589441,0
QCCT334,QCCT334,[QCCT334] Ngã 3 Trung An,10.98245,106.594076,0
QCCT336,QCCT336,[QCCT336] Cây xăng Hoàng Phi,10.982176,106.5987,0
HCC 237,HCC 237,[HCC 237] Khu công nghiệp cơ khí Ô tô,10.981528,106.603314,0
QCCT338,QCCT338,[QCCT338] Trường Hòa Phú,10.980691,106.608254,0
QCCT339,QCCT339,[QCCT339] Chùa Phước Hòa,10.980017,106.612031,0
HCC 240,HCC 240,"[HCC 240] Ngã 3 Bù Na, chợ Hòa Phú",10.979316,106.6157,0
HCC 241,HCC 241,[HCC 241] Ngã 3 Lò Chén,10.977078,106.620941,0
HCC 242,HCC 242,[HCC 242] Công A Khu công nghiệp Đông Nam,10.975835,106.62284,0
HCC 243,HCC 243,[HCC 243] Cầu Bà Bếp,10.973955,106.627888,0
HCC 244,HCC 244,[HCC 244] Công ty Gum Gard,10.973097,106.633853,0
HCC 245,HCC 245,[HCC 245] Ngã 3 Bình Mỹ,10.973266,106.638971,0
HCC 234,HCC 234,[HCC 234] Ngã 3 bến đò,10.9740814,106.6426584,0
HCC 247,HCC 247,[HCC 247] Cầu Phú Cường,10.977531,106.643783,0
BX 66,BX 66,[BX 66] Bến xe Bình Mỹ,10.979153,106.643257,0
HCC 248,HCC 248,[HCC 248] Cầu Phú Cường,10.977236,106.643708,0
HCC 249,HCC 249,[HCC 249] Ngã 3 Bến đò,10.974171,106.642458,0
QCCT350,QCCT350,[QCCT350] Ngã 3 Bình Mỹ,10.97335,106.638153,0
QCCT351,QCCT351,[QCCT351] Công ty Gum Gard,10.973239,106.633515,0
QCCT352,QCCT352,[QCCT352] Cầu Bà Bếp,10.973967,106.628448,0
QCCT353,QCCT353,[QCCT353] Cổng A Khu công nghiệp Đông Nam,10.975433,106.6239375,0
QCCT354,QCCT354,[QCCT354] Ngã 3 Lò Chén,10.977717,106.620201,0
QCCT355,QCCT355,"[QCCT355] Ngã 3 Bù Na, chợ Hòa Phú",10.978767,106.618332,0
HCC 356,HCC 356,[HCC 356] UBND xã Hòa Phú,10.9798632,106.6149589,0
HCC 252,HCC 252,[HCC 252] Chùa Phước Hòa,10.9801901,106.6115848,0
HCC 250,HCC 250,[HCC 250] Trường Hòa Phú,10.9803173,106.6090361,0
QCCT356,QCCT356,[QCCT356] Khu công nghiệp Cơ Khí Ô tô,10.98156,106.603968,0
HCC 246,HCC 246,[HCC 246] Văn phòng Ấp 4,10.9795983,106.6106761,0
QCCT357,QCCT357,[QCCT357] Ngã 3 Trung An,10.982518,106.595283,0
QCCT358,QCCT358,[QCCT358] Công ty SAEHWAVINA,10.982824,106.590375,0
QCCT359,QCCT359,[QCCT359] Công ty Samho,10.983324,106.583197,0
QCCT360,QCCT360,[QCCT360] Trung tâm thương mại Satra Mall,10.983608,106.578771,0
QCCT361,QCCT361,[QCCT361] Ngã tư Tân Quy,10.983814,106.575542,0
QCCT362,QCCT362,[QCCT362] Nguyễn Kim Cương,10.984146,106.570913,0
QCCT363,QCCT363,[QCCT363] Công ty Thái Hà,10.98443,106.56682,0
QCCT364,QCCT364,[QCCT364] Trạm y tế Tân Thạnh Tây,10.984883,106.560924,0
QCCT365,QCCT365,[QCCT365] Trường tiểu học Tân Thạnh Tây,10.984514,106.553575,0
QCCT366,QCCT366,[QCCT366] Đồng Mã Vôi,10.984061,106.549659,0
QCCT367,QCCT367,[QCCT367] Ấp 5,10.985141,106.543972,0
QCCT368,QCCT368,[QCCT368] Cây xăng Petrolimet 58,10.985978,106.540405,0
QCCT369,QCCT369,[QCCT369] Công viên nước Củ Chi,10.985246,106.533828,0
QCCT370,QCCT370,[QCCT370] Ấp 6,10.984714,106.529006,0
QCCT371,QCCT371,[QCCT371] Cây Bài,10.984899,106.524891,0
QCCT372,QCCT372,[QCCT372] Trường tiểu học Phước Vĩnh An,10.985025,106.521286,0
QCCT373,QCCT373,[QCCT373] Trần Văn Chẩm,10.984288,106.518223,0
QCCT374,QCCT374,[QCCT374] Cây xăng Hoàng Sơn,10.982808,106.512473,0
QCCT375,QCCT375,[QCCT375] Tỉnh lộ 2,10.98126,106.508793,0
QCCT376,QCCT376,[QCCT376] Can Trường,10.978205,106.503439,0
QCCT380,QCCT380,[QCCT380] Ủy Ban nhân dân thị Trấn Củ Chi,10.976188,106.499947,0
QCCT378,QCCT378,[QCCT378] Ủy Ban nhân dân huyện Củ Chi,10.973016,106.49437,0
QCCT379,QCCT379,[QCCT379] Trường Mầm non Thị trấn 3,10.971159,106.491176,0
QCCT377,QCCT377,[QCCT377] Trung tâm văn hóa Củ Chi,10.969195,106.487818,0
BX 84,BX 84,[BX 84] An Thới Đông,10.59098,106.789067,0
HCG 043,HCG 043,[HCG 043] Trường tiểu học An Thới Đông,10.590806,106.792517,0
HCG 131,HCG 131,[HCG 131] An Thới Đông,10.578073,106.812422,0
HCG 129,HCG 129,[HCG 129] An Thới Đông,10.57607336,106.8170605,0
HCG 044,HCG 044,[HCG 044] Trường Trung học An Thới Đôn,10.58335,106.805504,0
HCG 127,HCG 127,[HCG 127] An Thới Đông,10.576036,106.81708,0
HCG 045,HCG 045,[HCG 045] Rừng Sác,10.576221,106.824365,0
HCG 046,HCG 046,[HCG 046] Tam Thôn Hiệp,10.587437,106.825535,0
HCG 047,HCG 047,[HCG 047] Trường An Nghĩa,10.588829,106.830411,0
HCG 125,HCG 125,[HCG 125] Tam Thôn Hiệp,10.5875193,106.8253302,0
HCG 123,HCG 123,[HCG 123] Thuận Yến,10.5881329,106.8377746,0
HCG 048,HCG 048,[HCG 048] Đê An Hòa,10.587632,106.845195,0
HCG 121,HCG 121,[HCG 121] Đê N1,10.58778251,106.8498093,0
HCG 049,HCG 049,[HCG 049] Trường Tam Thôn Hiệp,10.587964,106.854519,0
HCG 119,HCG 119,[HCG 119] Nguyễn Công Bao,10.595847,106.857056,0
HCG 117,HCG 117,[HCG 117] Nguyễn Công Bao 2,10.598304,106.859556,0
HCG 115,HCG 115,[HCG 115] Tam Thôn Hiệp,10.601874,106.860108,0
HCG 051,HCG 051,[HCG 051] Đình xã Tam Thôn Hiệp,10.607996,106.859014,0
HCG 052,HCG 052,[HCG 052] Nhà văn hóa Ấp Trần Hưng Đạo,10.618019,106.855913,0
HCG 113,HCG 113,[HCG 113] Cống Hưng Đạo,10.5873574,106.8335441,0
HCG 053,HCG 053,[HCG 053] Cầu Tắc Tây Đen,10.618219,106.847556,0
HCG 054,HCG 054,[HCG 054] Bà Xán,10.619511,106.842368,0
HCG 111,HCG 111,[HCG 111] Đội 5,10.620445,106.835598,0
HCG 055,HCG 055,[HCG 055] Nghĩa trang Bình Khánh,10.618219,106.825604,0
BX 85,BX 85,[BX 85] Bà Xán,10.616538,106.81884,0
HCG 056,HCG 056,[HCG 056] Nghĩa trang Bình Khánh,10.61784,106.825283,0
HCG 110,HCG 110,[HCG 110] Đội 5,10.620097,106.835368,0
HCG 057,HCG 057,[HCG 057] Bà Xán,10.619232,106.842567,0
HCG 058,HCG 058,[HCG 058] Cầu Tắc Tây Đen,10.61804,106.847212,0
HCG 112,HCG 112,[HCG 112] Cống Hưng Đạo,10.5873574,106.8335441,0
HCG 059,HCG 059,[HCG 059] Nhà văn hóa Ấp Trần Hưng Đạo,10.617861,106.855811,0
HCG 060,HCG 060,[HCG 060] Đình xã Tam Thôn Hiệp,10.607532,106.858934,0
HCG 114,HCG 114,[HCG 114] Nguyễn Công Bao,10.601779,106.85998,0
HCG 116,HCG 116,[HCG 116] Nguyễn Công Bao 2,10.598515,106.85955,0
HCG 062,HCG 062,[HCG 062] Trường Trung học Tam Thôn Hiệp,10.588138,106.854706,0
HCG 120,HCG 120,[HCG 120] Đường Đê N1,10.587964,106.850222,0
HCG 063,HCG 063,[HCG 063] Đê An Hòa,10.587806,106.845024,0
HCG 122,HCG 122,[HCG 122] Thuận Yến,10.5882514,106.8378913,0
HCG 124,HCG 124,[HCG 124] Tam Thôn Hiệp,10.587505,106.834112,0
HCG 064,HCG 064,[HCG 064] Trường An Nghĩa,10.588961,106.830626,0
HCG 065,HCG 065,[HCG 065] Rừng Sác,10.5876035,106.8268728,0
HCG 066,HCG 066,[HCG 066] An Thới Đông,10.576326,106.824199,0
HCG 126,HCG 126,[HCG 126] An Thới Đông,10.5770609,106.8144798,0
HCG 067,HCG 067,[HCG 067] Trường THCS An Thới Đông,10.583208,106.805778,0
HCG 128,HCG 128,[HCG 128] An Thới Đông,10.586931,106.803868,0
HCG 130,HCG 130,[HCG 130] An Thới Đông,10.590442,106.801395,0
HCG 068,HCG 068,[HCG 068] Trường tiểu học An Thới Đông,10.590954,106.793289,0
BX 86,BX 86,[BX 86] Tân Điền,10.466353,106.776466,0
HCG 069,HCG 069,[HCG 069] Ngã 3 Lý Nhơn,10.471349,106.7696,0
HCG 070,HCG 070,[HCG 070] Tổ nhân dân 24,10.482199,106.761746,0
HCG 071,HCG 071,[HCG 071] Tổ nhân dân 25,10.492886,106.758812,0
HCG 072,HCG 072,[HCG 072] Cống Ông Tư Kính,10.510857,106.758571,0
HCG 073,HCG 073,[HCG 073] Bến đò Rạch Cát- Vàm Sác,10.528615,106.757616,0
HCG 074,HCG 074,[HCG 074] Ngã 3 Lý Nhơn,10.532966,106.766837,0
HCG 076,HCG 076,[HCG 076] Trường THCS Doi Lầu,10.555296,106.758683,0
HCG 077,HCG 077,[HCG 077] Cây xăng Cẩm Thanh,10.552764,106.777164,0
HCG 135,HCG 135,[HCG 135] Lý Nhơn,10.552506,106.799641,0
HCG 133,HCG 133,[HCG 133] Lý Nhơn,10.555628,106.810359,0
HCG 078,HCG 078,[HCG 078] Trạm kiểm lâm Tắc Cá Cháy 1,10.557732,106.817504,0
HCG 156,HCG 156,[HCG 156] Trạm dừng chân 1,10.6638234,106.777114,0
HCG 011,HCG 011,[HCG 011] Ngã 3 Lý Nhơn,10.56135,106.828694,0
HCG 010,HCG 010,[HCG 010] Ngã 3 An Thời Đông,10.575751,106.824934,0
BX 90,BX 90,[BX 90] An Nghĩa,10.588982,106.830593,0
HCG 009,HCG 009,[HCG 009] Ngã 3 An Thời Đông,10.575572,106.824633,0
HCG 012,HCG 012,[HCG 012] Ngã 3 Lý Nhơn,10.561445,106.828276,0
HCG 157,HCG 157,[HCG 157] Trạm dừng chân 1,10.56110822,106.8286369,0
HCG 079,HCG 079,[HCG 079] Trạm kiểm lâm Tắc Cá Cháy 1,10.557811,106.817214,0
HCG 132,HCG 132,[HCG 132] Lý Nhơn,10.555828,106.810445,0
HCG 134,HCG 134,[HCG 134] Lý Nhơn,10.55258,106.79934,0
HCG 080,HCG 080,[HCG 080] Cây xăng Cẩm Thanh,10.553065,106.776488,0
HCG 081,HCG 081,[HCG 081] Trường THCS Doi Lầu,10.55471,106.758485,0
HCG 083,HCG 083,[HCG 083] Dương Văn Hạnh,10.532855,106.766092,0
HCG 084,HCG 084,[HCG 084] Bến đò Rạch Cát- Vàm Sác,10.528457,106.757498,0
HCG 085,HCG 085,[HCG 085] Cống Ông Tư Kính,10.510646,106.758404,0
HCG 086,HCG 086,[HCG 086] Tổ nhân dân 25,10.491483,106.758678,0
HCG 087,HCG 087,[HCG 087] Tổ nhân dân 24,10.481915,106.761661,0
HCG 088,HCG 088,[HCG 088] Trạm y tế xã Lý Nhơn,10.470943,106.7699,0
Q1 040,Q1 040,[Q1 040] Khách sạn New world,10.77129,106.695824,0
Q1 003,Q1 003,[Q1 003] Trống Đồng,10.773046,106.690813,0
Q3 006,Q3 006,[Q3 006] Võ Văn Tần,10.774068,106.688946,0
Q3 007,Q3 007,[Q3 007] Bệnh viện Mắt - Bình Dân - Da Liễu,10.776461,106.684467,0
Q3 008,Q3 008,[Q3 008] Công trường Dân Chủ,10.77753,106.682455,0
Q3 009,Q3 009,[Q3 009] Công trường Dân Chủ,10.778516,106.680481,0
Q3 010,Q3 010,[Q3 010] Ngã Ba Chí Hòa,10.780703,106.676345,0
Q3 011,Q3 011,[Q3 011] Chùa Bửu Đà,10.78163,106.674741,0
Q3 012,Q3 012,[Q3 012] Rạp hát Thanh Vân,10.783738,106.670755,0
Q3 013,Q3 013,[Q3 013] Chợ Hòa Hưng,10.784146,106.669945,0
Q3 014,Q3 014,[Q3 014] Công viên Lê Thị Riêng,10.785814,106.66693,0
QTB 067,QTB 067,[QTB 067] Ngã tư Bảy Hiền,10.794182,106.651191,0
QTB 068,QTB 068,[QTB 068] Nhà Thở Đắc Lộ,10.795068,106.649576,0
QTB 069,QTB 069,[QTB 069] Ngã ba Hoàng Hoa Thám,10.796053,106.647747,0
QTB 070,QTB 070,[QTB 070] Ngã ba Bình Giã,10.797792,106.644453,0
QTB 071,QTB 071,[QTB 071] Ngã ba Ấp Bắc,10.799642,106.641036,0
QTB 072,QTB 072,[QTB 072] Chợ Võ Thành Trang,10.801365,106.637823,0
QTB 073,QTB 073,[QTB 073] Ngã tư Tân Kỳ Tân Quý,10.804732,106.635629,0
QTB 074,QTB 074,[QTB 074] Siêu thị Big C,10.806202,106.635184,0
Q12 124,Q12 124,[Q12 124] Bến xe An Sương,10.846293,106.6132,0
HHM 027,HHM 027,[HHM 027] Ngã 3 Bùi Môn,10.871397,106.596147,0
HHM 0270,HHM 0270,[HHM 0270] Sài Gòn Viễn Đông,10.875093,106.593424,0
HHM 028,HHM 028,[HHM 028] Ngã tư Giếng Nước,10.877482,106.591748,0
HHM 029,HHM 029,[HHM 029] Cây Xăng Xuyên Á,10.881109,106.589179,0
HHM 030,HHM 030,[HHM 030] Ngã tư Hóc Môn,10.884615,106.586732,0
HHM 031,HHM 031,[HHM 031] Dân Thắng,10.888708,106.583878,0
HHM 032,HHM 032,[HHM 032] Ngã ba Lam Sơn,10.893147,106.580742,0
HHM 033,HHM 033,[HHM 033] Doanh trại Quân Đội,10.895661,106.579024,0
HHM 034,HHM 034,[HHM 034] Ngã 3 Hồng Châu,10.899733,106.576191,0
HHM 035,HHM 035,[HHM 035] Công ty Sakos,10.903752,106.57337,0
HHM 036,HHM 036,[HHM 036] Cây xăng Hoàng Anh 2,10.905691,106.572071,0
HHM 037,HHM 037,[HHM 037] Công ty thoát nước đô thị,10.911664,106.567812,0
HHM 038,HHM 038,[HHM 038] Cầu An Hạ,10.916901,106.564102,0
HCC 001,HCC 001,[HCC 001] Công ty Fujifilm,10.921261,106.561267,0
HCC 002,HCC 002,[HCC 002] Bệnh viện Xuyên Á,10.926929,106.55711,0
HCC 003,HCC 003,[HCC 003] Chợ chiều Tân Phú Trung,10.931343,106.553714,0
HCC 004,HCC 004,[HCC 004] Mũi tàu Tỉnh lộ 2,10.934983,106.549553,0
HCC 005,HCC 005,[HCC 005] Nhà thờ Bắc Đoàn,10.937979,106.543425,0
HCC 006,HCC 006,[HCC 006] Trường Tân Phú Trung,10.939433,106.540335,0
HCC 007,HCC 007,[HCC 007] Nhà thờ Sơn Lộc,10.94185,106.535325,0
HCC 008,HCC 008,[HCC 008] Chùa Pháp Hạnh,10.944768,106.529269,0
HCC 009,HCC 009,[HCC 009] Ngã tư Quán đôi,10.947133,106.524635,0
HCC 010,HCC 010,[HCC 010] Hồng Đào,10.95003,106.520369,0
HCC 011,HCC 011,[HCC 011] Trường Mầm non Tân Thông Hội 1,10.952821,106.516228,0
HCC 012,HCC 012,[HCC 012] Công ty Sài Gòn Cáp,10.95705,106.509834,0
HCC 013,HCC 013,[HCC 013] Nhà thờ Tân Thông,10.959546,106.504962,0
HCC 014,HCC 014,[HCC 014] Điện lực Củ Chi - Ngã 3 Việt Kiều,10.961317,106.501617,0
HCC 015,HCC 015,[HCC 015] xóm Huế,10.96355,106.497749,0
HCC 016,HCC 016,[HCC 016] Bò Tơ Xuân Đào,10.9658,106.49308,0
HCC 017,HCC 017,[HCC 017] Cầu vượt Củ Chi,10.96765,106.488319,0
HCC 038,HCC 038,[HCC 038] Trường trung học cơ sở Củ Chi,10.967041,106.48903,0
HCC 039,HCC 039,[HCC 039] Quán Tư Râu,10.965524,106.492994,0
HCC 040,HCC 040,[HCC 040] xóm Huế,10.963449,106.49735,0
HCC 041,HCC 041,[HCC 041] Điện lực Củ Chi - Ngã 3 Việt Kiều,10.9602,106.503161,0
HCC 042,HCC 042,[HCC 042] Nhà thiếu nhi Củ Chi,10.959204,106.505027,0
HCC 043,HCC 043,[HCC 043] Công ty Sài Gòn Cáp,10.956818,106.509694,0
HCC 044,HCC 044,[HCC 044] Trường Mầm non Tân Thông Hội 1,10.953068,106.515434,0
HCC 045,HCC 045,[HCC 045] Trạm Hồng Đào,10.950651,106.518974,0
HCC 046,HCC 046,[HCC 046] Ngã tư Quán đôi,10.947954,106.522923,0
HCC 047,HCC 047,[HCC 047] Chùa Pháp Hạnh,10.943678,106.530776,0
HCC 048,HCC 048,[HCC 048] Nhà thờ Sơn Lộc,10.941083,106.536346,0
HCC 049,HCC 049,[HCC 049] trường Tân Phú Trung,10.93918,106.540223,0
HCC 050,HCC 050,[HCC 050] Nhà thờ Bắc Đoàn,10.937558,106.543602,0
HCC 051,HCC 051,[HCC 051] Mũi tàu Tỉnh lộ 2,10.93454,106.549798,0
HCC 052,HCC 052,[HCC 052] Chợ chiều Tân Phú Trung,10.931917,106.552808,0
HCC 355,HCC 355,[HCC 355] Công ty Thủy lợi TP.HCM,10.929137,106.5547962,0
